[{"number":16,"name":"16 - BEAUREGARD","address":"Avenue Fontaine Argent angle rue Beauregard","latitude":47.244985,"longitude":6.032536},{"number":30,"name":"30 - XAVIER MARMIER","address":"18 rue Xavier Marmier","latitude":47.241652,"longitude":6.007549},{"number":2,"name":"02 - SQUARE BOUCHOT","address":"Rue Battant (au niveau du Square Bouchot)","latitude":47.243569,"longitude":6.021966},{"number":26,"name":"26 - BERSOT","address":"Place de la 7ème Brigade blindée","latitude":47.238867,"longitude":6.029564},{"number":14,"name":"14 - JACOBINS","address":"Place Jacobins","latitude":47.234525,"longitude":6.033161},{"number":22,"name":"22 - LIBERTE","address":"Place de la Liberté","latitude":47.247455,"longitude":6.028569},{"number":23,"name":"23 - RIVOTTE","address":"Rue Charles NODIER Sortie du tunnel, direction Morne","latitude":47.232189,"longitude":6.034991},{"number":27,"name":"27 - MAIRIE","address":"Rue Megevand","latitude":47.23678,"longitude":6.022275},{"number":24,"name":"24 - MEDIATHEQUE","address":"Rue de la République angle rue d'Alsace face à la médiathèque","latitude":47.240083,"longitude":6.027359},{"number":4,"name":"04 - FLORE","address":"7 rue de la Cassotte","latitude":47.245801,"longitude":6.028143},{"number":1,"name":"01 - GARE VIOTTE (CB)","address":"Parc des Glacis - Entrée Avenue de la Paix","latitude":47.24656,"longitude":6.022551},{"number":17,"name":"17 - PREFECTURE","address":"Avenue de la Gare d'Eau face commissariat","latitude":47.232903,"longitude":6.020116},{"number":21,"name":"21 - DEPORTES (CB)","address":"Avenue Fontaine Argent angle Bld Diderot","latitude":47.247787,"longitude":6.036415},{"number":10,"name":"10 - 8 SEPTEMBRE (CB)","address":"Place du 8 Septembre","latitude":47.237665,"longitude":6.024203},{"number":28,"name":"28 - LECLERC","address":"Place Leclerc","latitude":47.242273,"longitude":6.014452},{"number":15,"name":"15 - TASSIGNY","address":"Place De Lattre de Tassigny, 25000 Besancon","latitude":47.231111,"longitude":6.026695},{"number":9,"name":"09 - LA CITY","address":"Avenue Louise Michel angle rue Plançon","latitude":47.235425,"longitude":6.015281},{"number":13,"name":"13 - VICTOR HUGO","address":"Place Victor Hugo (au niveau de la porte Noire, entrée de la Citadelle)","latitude":47.234749,"longitude":6.029566},{"number":3,"name":"03 - MADELEINE (CB)","address":"Rue de la Madeleine- Face à la rue de l'Ecole","latitude":47.239978,"longitude":6.019691},{"number":6,"name":"06 - MICAUD (CB)","address":"Avenue Edouard Droz","latitude":47.242544,"longitude":6.029782},{"number":5,"name":"05 - ISEMBART","address":"Quai de Strasbourg (Pont Denfert Rochereau)","latitude":47.242756,"longitude":6.02529},{"number":7,"name":"07 - GARE MOUILLERE","address":"Parvis de la Gare","latitude":47.240166,"longitude":6.033729},{"number":29,"name":"29 - BELFORT","address":"Rue de Belfort angle rue Suard","latitude":47.248886,"longitude":6.030818},{"number":8,"name":"08 - MARULAZ","address":"Place Marulaz","latitude":47.239595,"longitude":6.017044},{"number":18,"name":"18 - SAINT-JACQUES (CB)","address":"Place Saint Jacques (en face de l'hopital)","latitude":47.23526,"longitude":6.021363},{"number":19,"name":"19 - BEAUX-ARTS","address":"Angle de la rue Gustave Courbet et rue Pierre Joseph Proudhon","latitude":47.240827,"longitude":6.02527},{"number":12,"name":"12 - GRANVELLE (CB)","address":"Place Granvelle","latitude":47.235437,"longitude":6.025724},{"number":25,"name":"25 - MORAND","address":"2 rue Morand","latitude":47.238133,"longitude":6.026309},{"number":20,"name":"20 - REVOLUTION (CB)","address":"Place de la Révolution rue Luc Breton","latitude":47.239529,"longitude":6.023377},{"number":11,"name":"11 - JEAN CORNET","address":"Place Jean Cornet","latitude":47.236363,"longitude":6.028817}]