[{"number":55,"name":"00055 - SAINT-SERNIN - G. ARNOULT","address":"2 RUE GATIEN ARNOULT","latitude":43.609022,"longitude":1.441105},{"number":195,"name":"00195 - LARROUSSE - RIEUX","address":"FACE 15 RUE PIERRE LAROUSSE","latitude":43.597355,"longitude":1.459063},{"number":29,"name":"00029 - VALADE","address":"31 RUE VALADE","latitude":43.605031,"longitude":1.437386},{"number":280,"name":"00280 - CHARBONNIERE","address":"RUE DE LA CHARBONNIERE ENTRE IMP AMPERE ET RUE DES PALMIERS","latitude":43.573732,"longitude":1.448768},{"number":156,"name":"00156 - METRO EMPALOT","address":"38 AV JEAN MOULIN FACE DEBOUCHE RUE DE CANNES","latitude":43.579666,"longitude":1.44184},{"number":242,"name":"00242 -  RAIMBAUD - COLETTE","address":"RUE RAIMBAUD ANGLE RUE COLETTE","latitude":43.633734,"longitude":1.437609},{"number":224,"name":"00224 - CAMPUS SUPAERO","address":"10 AV EDOUARD BELIN FACE CHATEAU D'EAU CREPS RD-PT JEAN LAGASSE","latitude":43.56644,"longitude":1.475301},{"number":229,"name":"00229 - RANGUEIL IUT","address":"129 AV DE RANGUEIL","latitude":43.57141,"longitude":1.462732},{"number":154,"name":"00154 - GALLOIS","address":"50 M AVANT 4 RUE DES GALLOIS","latitude":43.589928,"longitude":1.441706},{"number":96,"name":"00096 - MEDIATHEQUE","address":"50 RUE DU GENERAL COMPANS","latitude":43.609757,"longitude":1.455212},{"number":65,"name":"00065 - VERDIER - GRAND ROND","address":"2 ALL FORAIN FRANCOIS VERDIER","latitude":43.596904,"longitude":1.452596},{"number":22,"name":"00022 - CARNOT - PLACE ROLAND","address":"24 BD LAZARE CARNOT","latitude":43.602914,"longitude":1.451719},{"number":236,"name":"00236 - TOEC - LEMIRE","address":"RUE DE L'ABBE JULES LEMIRE ANGLE VOIE DU TOEC","latitude":43.597322,"longitude":1.403694},{"number":111,"name":"00111 - MINIMES - PASSERELLE","address":"38B BD DES MINIMES","latitude":43.615273,"longitude":1.442937},{"number":152,"name":"00152 - MAZADES","address":"10 AV DES MAZADES","latitude":43.624114,"longitude":1.438463},{"number":243,"name":"00243 - ETATS-UNIS - FERRY","address":"FACE 97 AV DES ETATS-UNIS ANGLE JULES FERRY","latitude":43.632734,"longitude":1.431732},{"number":174,"name":"00174 - MAUNOURY - MELAT","address":"41 AV MAURICE BOURGES MAUNOURY","latitude":43.63694,"longitude":1.452615},{"number":276,"name":"00276 - MARIN REBOUL","address":"FACE 1 CHEMIN DU MARIN","latitude":43.581463,"longitude":1.379769},{"number":77,"name":"00077 - PLACE INT - SAINT-CYPRIEN","address":"2 PL INTERIEURE SAINT-CYPRIEN","latitude":43.59778,"longitude":1.431619},{"number":137,"name":"00137 - BRUNHES - FONTAINES","address":"68 BD JEAN BRUNHES FACE AU 53","latitude":43.600473,"longitude":1.420165},{"number":144,"name":"00144 - SUISSE - LAUSANE","address":"62 BD DE SUISSE","latitude":43.615988,"longitude":1.42163},{"number":40,"name":"00040 - COLOMBETTE","address":"41 RUE DE LA COLOMBETTE","latitude":43.604565,"longitude":1.453659},{"number":25,"name":"00025 - PLACE ROUAIX","address":"1 RUE DES TOURNEURS","latitude":43.599525,"longitude":1.445544},{"number":74,"name":"00074 - LAGANNE - TEINTURIERS","address":"37 RUE LAGANNE","latitude":43.596667,"longitude":1.436229},{"number":71,"name":"00071 - COURS DILLON","address":"3 RUE LAGANNE","latitude":43.593227,"longitude":1.435062},{"number":105,"name":"00105 - BILLIERE - CHAMPETRE","address":"12  AV  ETIENNE  BILLIERES","latitude":43.597539,"longitude":1.428891},{"number":64,"name":"00064 - PERI - MERCADIER","address":"30 RUE GABRIEL PERI","latitude":43.606208,"longitude":1.455005},{"number":3,"name":"00003 - POMME","address":"62 RUE DE LA POMME","latitude":43.603302,"longitude":1.445454},{"number":93,"name":"00093 - PRINTEMPS","address":"57 RUE DU PRINTEMPS","latitude":43.614574,"longitude":1.443571},{"number":139,"name":"00139 - BARRIERE DE LOMBEZ","address":"39 BIS AV DE LOMBEZ","latitude":43.595503,"longitude":1.418503},{"number":81,"name":"00081 - JARDIN RAYMOND VI","address":"ALLEE CHARLES DE FITTE / FACE JARDIN RAYMOND VI","latitude":43.599797,"longitude":1.429521},{"number":60,"name":"00060 - ROQUELAINE","address":"32 PL ROQUELAINE","latitude":43.612615,"longitude":1.448286},{"number":36,"name":"00036 - PLACE SCHUMAN","address":"5 PL ROBERT SCHUMAN","latitude":43.609622,"longitude":1.449431},{"number":227,"name":"00227 - METRO UPS - TELEO","address":"118  RTE DE NARBONNE","latitude":43.561074,"longitude":1.462928},{"number":248,"name":"00248 - BOUQUETINS - ROSTAND","address":"RUE DES BOUQUETINS ANGLE RUE EDMOND ROSTAND","latitude":43.641013,"longitude":1.448524},{"number":53,"name":"00053 - PLACE SAINT-JULIEN","address":"PLACE SAINT JULIEN","latitude":43.608639,"longitude":1.436965},{"number":187,"name":"00187 - DESBALS - MONT DORE","address":"187 RUE HENRI DESBALS","latitude":43.58456,"longitude":1.415683},{"number":87,"name":"00087 - LASCROSSES - LECLERC","address":"47 BD LASCROSSES","latitude":43.609277,"longitude":1.432157},{"number":225,"name":"00225 - BELIN - ONERA","address":"4 AV EDOUARD BELIN DEVANT ONERA FACE AU CREPS","latitude":43.570117,"longitude":1.473463},{"number":121,"name":"00121 - SERRES - A.BERNARD","address":"33 AV HONORE SERRES","latitude":43.612627,"longitude":1.438268},{"number":84,"name":"00084 - BRIENNE - MANUFACTURE","address":"19T ALL DE BRIENNE","latitude":43.605381,"longitude":1.432485},{"number":239,"name":"00239 - LESPINET - HERBETTES","address":"ANGLE AVENUE DE LESPINET ET RUE GEORGES BIDAULT","latitude":43.576637,"longitude":1.470245},{"number":1,"name":"00001 - POIDS DE L'HUILE","address":"12 RUE DU POIDS DE L'HUILE","latitude":43.60419,"longitude":1.445475},{"number":37,"name":"00037 - SAINTE-LUCIE","address":"53 RUE SAINTE-LUCIE","latitude":43.593516,"longitude":1.430039},{"number":7,"name":"00007 - PLACE VICTOR HUGO","address":"6 RUE DU REMPART VILLENEUVE","latitude":43.605777,"longitude":1.446507},{"number":259,"name":"00259 - PLACE RICHE","address":"PL PAUL RICHE A COTE 231 AV DE FRONTON","latitude":43.647504,"longitude":1.43286},{"number":234,"name":"00234 - LOUIN - RAYNAL","address":"50M APRES 4 RUE PIERRETTE LOUIN","latitude":43.628145,"longitude":1.451413},{"number":192,"name":"00192 - ROUTE DE ST SIMON - PRADO","address":"355 ROUTE DE SAINT-SIMON","latitude":43.587845,"longitude":1.409785},{"number":48,"name":"00048 - PLACE DU SALIN","address":"18 PL DU SALIN","latitude":43.594461,"longitude":1.443822},{"number":175,"name":"00175 - METRO BORDEROUGE - MAUNOURY","address":"FACE 52 AV BOURGES MAUNOURY","latitude":43.639633,"longitude":1.452569},{"number":266,"name":"00266 - TOURAINE","address":"38 RUE DE LA TOURAINE","latitude":43.573708,"longitude":1.41394},{"number":166,"name":"00166 - METRO RANGUEIL - GUYOU","address":"23 RUE GUYOU","latitude":43.57421,"longitude":1.462367},{"number":135,"name":"00135 - BONNEFOY - LEMAITRE","address":"179 RUE DU FAUBOURG BONNEFOY","latitude":43.622963,"longitude":1.458647},{"number":79,"name":"00079 - PLACE LANGE","address":"1 PL LANGE","latitude":43.601016,"longitude":1.434129},{"number":210,"name":"00210 - TERRASSE - CENTRE COMMERCIAL","address":"FACE 42 CHE DE LA TERRASSE","latitude":43.586086,"longitude":1.482942},{"number":75,"name":"00075 - CHATEAU D'EAU","address":"12 PLACE LAGANNE","latitude":43.59859,"longitude":1.436594},{"number":115,"name":"00115 - DEMOISELLES - MISTRAL","address":"8 ALL DES DEMOISELLES","latitude":43.590692,"longitude":1.453224},{"number":221,"name":"00221 - VAUQUELIN","address":"FACE 85 RUE VAUQUELIN","latitude":43.576221,"longitude":1.406355},{"number":128,"name":"00128 - PRISON SAINT-MICHEL","address":"18 B GRANDE RUE ST MICHEL","latitude":43.58585,"longitude":1.447374},{"number":67,"name":"00067 - MUSEUM","address":"35 ALL JULES GUESDE","latitude":43.594812,"longitude":1.449176},{"number":188,"name":"00188 - MURET - LAFAGE","address":"121 AVENUE DE MURET","latitude":43.584339,"longitude":1.427597},{"number":118,"name":"00118 - PLACE DU BUSCA","address":"PLACE DU BUSCA / FACE ECOLE JEAN JAURES","latitude":43.588588,"longitude":1.451003},{"number":178,"name":"00178 - BRUNAUD - PLANA","address":"FACE 100 AV YVES BRUNAUD","latitude":43.619291,"longitude":1.468681},{"number":41,"name":"00041 - SAINT-AUBIN - CAMICHEL","address":"1 RUE CHARLES CAMICHEL","latitude":43.602708,"longitude":1.454367},{"number":90,"name":"00090 - LASCROSSES - PLACE ARNAUD BERNARD","address":"3B BD LASCROSSES","latitude":43.611271,"longitude":1.438093},{"number":68,"name":"00068 - METRO - PALAIS DE JUSTICE","address":"1 BIS ALLEE JULES GUESDE","latitude":43.592782,"longitude":1.444726},{"number":147,"name":"00147 - CHAUSSAS - DAUDET","address":"96 RUE DE CHAUSSAS","latitude":43.619704,"longitude":1.429176},{"number":109,"name":"00109 - METRO - CANAL DU MIDI","address":"1 BD DE LA MARQUETTE","latitude":43.615275,"longitude":1.434944},{"number":153,"name":"00153 - BOURGES MAUNOURY","address":"12 AV BOURGES MAUNOURY","latitude":43.628672,"longitude":1.448469},{"number":262,"name":"00262 - ROND POINT CHEMIN DE BORDEROUGE","address":"26 CH DE BORDEROUGE","latitude":43.642562,"longitude":1.456273},{"number":197,"name":"00197 - CASERNE PERIGNON","address":"6 AV LOUIS BLERIOT","latitude":43.600361,"longitude":1.464039},{"number":23,"name":"00023 - COMBATTANTS","address":"6 BD LAZARE CARNOT","latitude":43.601372,"longitude":1.452038},{"number":273,"name":"00273 - PASSERIEU - SAINT-SIMON","address":"RD PT LOUIS IZAR / ANGLE AV LOUIS ARISTE PASSERIEU","latitude":43.579135,"longitude":1.392596},{"number":183,"name":"00183 - RUE DE CUGNAUX","address":"RUE DE CUGNAUX","latitude":43.593147,"longitude":1.424313},{"number":126,"name":"00126 - ECOLE BONNEFOY","address":"18 RUE BONNEFOY","latitude":43.616939,"longitude":1.454243},{"number":255,"name":"00255 - HENRI SELLIER","address":"2 RUE DES MOUETTES / ANGLE ALL HENRI SELLIER","latitude":43.576893,"longitude":1.440049},{"number":233,"name":"00233 - NARBONNE - SAHUQUE","address":"FACE 88 RTE DE NARBONNE STATION ESSO","latitude":43.566528,"longitude":1.458648},{"number":254,"name":"00254 - LOT - VESTREPAIN","address":"RUE DU LOT / 100M AVANT LA RUE VESTREPAIN","latitude":43.583264,"longitude":1.407055},{"number":21,"name":"00021 - CARNOT - LABEDA","address":"63 BD LAZARE CARNOT","latitude":43.604079,"longitude":1.450158},{"number":62,"name":"00062 - JAURES - STALINGRAD","address":"81 ALLEE JEAN JAURES","latitude":43.609216,"longitude":1.453549},{"number":244,"name":"00244 - RENAN - VITRY","address":"93 RUE ERNEST RENAN ANGLE RUE VITRY","latitude":43.635856,"longitude":1.443828},{"number":24,"name":"00024 - PLACE SAINT-ETIENNE","address":"14 PL SAINT-ETIENNE","latitude":43.600055,"longitude":1.449273},{"number":245,"name":"00245 - GRANDE-BRETAGNE - BADIOU","address":"103 BIS AV DE GRANDE BRETAGNE ANGLE RUE BADIOU","latitude":43.599732,"longitude":1.415372},{"number":281,"name":"00281 - NIEL","address":"FACE 80 RUE SAINT ROCH / ANGLE AC DU 14EME REGIMENT D'INFANTERIE","latitude":43.578687,"longitude":1.446733},{"number":260,"name":"00260 - DUCLOS - FRONTON","address":"RUE LEONCE DUCLOS / ANGLE AV DE FRONTON FACE 26 IMP DU BARON","latitude":43.644963,"longitude":1.433998},{"number":228,"name":"00228 - METRO FACULTE DE PHARMACIE","address":"FACE 35 CHEMIN DES MARAICHERS","latitude":43.568165,"longitude":1.464353},{"number":124,"name":"00124 - EGLISE DES MINIMES","address":"27 AV DES MINIMES","latitude":43.618287,"longitude":1.436857},{"number":207,"name":"00207 - CHRIST ROI","address":"FACE 25 RUE DE L AUDE","latitude":43.583202,"longitude":1.481757},{"number":11,"name":"00011 - PLACE DE LA DAURADE","address":"2 PL DE LA DAURADE","latitude":43.601888,"longitude":1.440368},{"number":186,"name":"00186 - DESBALS - BOUALAM","address":"1 IMPASSE BACHAGA BOUALAM","latitude":43.579171,"longitude":1.410939},{"number":235,"name":"00235 - METRO LAVACHE - VERLAINE","address":"FACE AU 8 RUE PAUL VERLAINE","latitude":43.633454,"longitude":1.435519},{"number":288,"name":"000288 - METZ - RUE DES MARCHANDS","address":"28 RUE DES MARCHANDS","latitude":43.600021,"longitude":1.44293},{"number":150,"name":"00150 - CURIE - CAMPISTRON","address":"78 BD PIERRE ET MARIE CURIE","latitude":43.62563,"longitude":1.439513},{"number":184,"name":"00184 - MICHOUN","address":"70 CHEMIN MICHOUN","latitude":43.62724,"longitude":1.469293},{"number":271,"name":"00271 - ANCELY","address":"FACE 151 AV DES ARENES ROMAINES","latitude":43.619301,"longitude":1.396986},{"number":33,"name":"00033 - BERALDI","address":"11 RUE HENRI BERALDI","latitude":43.608605,"longitude":1.4436},{"number":161,"name":"00161 - RANGUEIL - BEDOUCE","address":"35 AV DE RANGUEIL","latitude":43.576773,"longitude":1.454742},{"number":172,"name":"00172 - NETWILLER - LAFFORGUE","address":"RD-PT DE L'ABBE LAFFORGUE ANGLE RUE HENRI EBELOT","latitude":43.642859,"longitude":1.461124},{"number":120,"name":"00120 - BARCELONE - PONTS JUMEAUX","address":"152 ALL DE BARCELONE","latitude":43.610343,"longitude":1.420407},{"number":268,"name":"00268 - PLACE BAYLAC","address":"PL DU DR JOSEPH BAYLAC ANGLE AV DES ARENES ROMAINES","latitude":43.608597,"longitude":1.397192},{"number":217,"name":"00217 - AMOUROUX - SAINT-TROPEZ","address":"42 CHEMIN AMOUROUX","latitude":43.629655,"longitude":1.466259},{"number":82,"name":"00082 - SEJOURNE - CATALANS","address":"1 AV PAUL SEJOURNE","latitude":43.605804,"longitude":1.428054},{"number":173,"name":"00173 - MAUNOURY - SEGLA","address":"25 AV MAURICE BOURGES MAUNOURY","latitude":43.633171,"longitude":1.450638},{"number":70,"name":"00070 - FER A CHEVAL","address":"5 PLACE DU FER A CHEVAL","latitude":43.592366,"longitude":1.434121},{"number":141,"name":"00141 - FONTAINE LESTANG","address":"237 RUE HENRI DESBALS","latitude":43.587389,"longitude":1.417918},{"number":108,"name":"00108 - SEBASTOPOL - RITAY","address":"40 RUE SEBASTOPOL","latitude":43.612279,"longitude":1.428827},{"number":85,"name":"00085 - MARECHAL LECLERC","address":"2 BD DU MARECHAL LECLERC","latitude":43.606847,"longitude":1.430615},{"number":202,"name":"00202 - SAINT-EXUPERY - COURREGE","address":"165 AV ANTOINE DE ST EXUPERY","latitude":43.581632,"longitude":1.475865},{"number":102,"name":"00102 -  MISTRAL - FLEURANCE","address":"18 ALLEE FREDERIC MISTRAL","latitude":43.593567,"longitude":1.453066},{"number":143,"name":"00143 - DESBALS - SAINTONGE","address":"PL GENEVIEVE ANTHONIOZ DE GAULLE / ANGLE RUE HENRY DESBALS","latitude":43.581384,"longitude":1.413607},{"number":106,"name":"00106 - BRIENNE - PASSERELLE","address":"99 ALL DE BRIENNE","latitude":43.608424,"longitude":1.423848},{"number":30,"name":"00030 - PLACE ANATOLE FRANCE","address":"40 PL ANATOLE FRANCE","latitude":43.606241,"longitude":1.438341},{"number":170,"name":"00170 - ROUTE D'ALBI - NICOL","address":"FACE 163 CHE NICOL","latitude":43.635586,"longitude":1.464289},{"number":274,"name":"00274 - GALLIENI","address":"FACE 296 RTE DE SEYSSES / HALTE SNCF GALLIENI - CANCEROPOLE","latitude":43.573998,"longitude":1.419495},{"number":123,"name":"00123 - CHAUSSAS - EMBOUCHURE","address":"1 RUE DE CHAUSSAS","latitude":43.61497,"longitude":1.432909},{"number":6,"name":"00006 - LOIS","address":"10 RUE DES LOIS","latitude":43.605161,"longitude":1.442323},{"number":213,"name":"00213 - PUJOL - CHAUBET","address":"129 AV DE CASTRES","latitude":43.600704,"longitude":1.467249},{"number":257,"name":"00257 - CHATEAU DE L'HERS","address":"CH DU CHATEAU DE L'HERS / ANGLE CH FONTANELLES","latitude":43.600712,"longitude":1.48356},{"number":9,"name":"00009 - MAILLART - ROQUEMAUREL","address":"RUE ROQUEMAUREL / ANGLE 3 RUE ANNE FRANCK","latitude":43.596069,"longitude":1.410505},{"number":97,"name":"00097 - RAYMOND IV","address":"FACE AU 66 RUE RAYMOND IV","latitude":43.612475,"longitude":1.451558},{"number":49,"name":"00049 - PLACE DU PONT NEUF","address":"DEVANT 12 PLACE DU PONT NEUF","latitude":43.599598,"longitude":1.440942},{"number":191,"name":"00191 - RUE DU 14 JUILLET - ROUTE DE SAINT-SIMON","address":"395 ROUTE DE SAINT SIMON","latitude":43.590046,"longitude":1.415246},{"number":52,"name":"00052 - DUPORTAL - CITE ADMIN.","address":"39 BD ARMAND DUPORTAL","latitude":43.608571,"longitude":1.434762},{"number":104,"name":"00104 - MURET - RAPAS","address":"219 AV DE MURET","latitude":43.589126,"longitude":1.431449},{"number":19,"name":"00019 - CARNOT - SEPT TROUBADOURS","address":"1 RUE DES 7 TROUBADOURS","latitude":43.605503,"longitude":1.449267},{"number":13,"name":"00013 - LOIS - ESQUILE","address":"1 RUE DE L ESQUILE","latitude":43.606146,"longitude":1.44135},{"number":129,"name":"00129 - CROIX DE PIERRE","address":"2 BD DEODAT DE SEVERAC","latitude":43.585732,"longitude":1.427853},{"number":287,"name":"00287 - STADE ERNEST-WALLON - STADE TOULOUSAIN","address":"114 RUE DES TROENES / ANGLE STADE ERNEST WALLON","latitude":43.620607,"longitude":1.415125},{"number":212,"name":"00212 - CHAUMIERE - CHIRAC","address":"RUE DE LA CHAUMIERE / 50 M APRES RD-PT DU CAPITAINE DREYFUS","latitude":43.6152,"longitude":1.465444},{"number":284,"name":"00284 - METRO ARGOULETS - AGDE","address":"67 RTE D'AGDE / RD PT DAVID FREIMAN","latitude":43.627013,"longitude":1.477098},{"number":168,"name":"00168 - PLACE BILA - ROUTE D'ALBI","address":"FACE 3 PL BILA","latitude":43.626597,"longitude":1.458835},{"number":179,"name":"00179 - CASSAING - PLANA","address":"5 CH CASSAING","latitude":43.616938,"longitude":1.473616},{"number":204,"name":"00204 - PLACE ROGER ARNAUD","address":"PL ROGER ARNAUD","latitude":43.586859,"longitude":1.463178},{"number":249,"name":"00249 - CROIX-DAURADE","address":"147 RTE D'ALBI","latitude":43.637842,"longitude":1.464879},{"number":15,"name":"00015 - PONT MONTAUDRAN","address":"FACE AU 5 PORT SAINT-SAUVEUR","latitude":43.596411,"longitude":1.456584},{"number":247,"name":"00247 - LAUNAGUET - AUDIBERT","address":"FACE 112 RTE DE LAUNAGUET","latitude":43.636446,"longitude":1.438984},{"number":134,"name":"00134 - EGLISE BONNEFOY","address":"8 ALLEE DE L'EGLISE BONNEFOY","latitude":43.619031,"longitude":1.456759},{"number":76,"name":"00076 - RECLUSANE - PL. OLIVIER","address":"PLACE OLIVIER, DEVANT N°1 RUE  RECLUSANE","latitude":43.598478,"longitude":1.434043},{"number":112,"name":"00112 - PLACE RUSSELL - BRANLY","address":"47 ALLEE BRANLY","latitude":43.585409,"longitude":1.453014},{"number":193,"name":"00193 - LOMBEZ - PETITE VITESSE","address":"59 AV DE LOMBEZ","latitude":43.59487,"longitude":1.415088},{"number":190,"name":"00190 - ESPAGNE - LES OUSTALOUS","address":"39 RTE D'ESPAGNE","latitude":43.577437,"longitude":1.423953},{"number":241,"name":"00241 - ESPAGNE - CHARPENTIER","address":"57 RTE D'ESPAGNE","latitude":43.575101,"longitude":1.424227},{"number":253,"name":"00253 - ETATS-UNIS - ROBERT","address":"FACE 74 AV DES ETATS-UNIS (GARAGE RENAULT TOULOUSE)","latitude":43.630519,"longitude":1.43234},{"number":89,"name":"00089 - ESP COMPANS-CAFFARELLI","address":"1 ESP COMPANS-CAFFARELLI","latitude":43.611073,"longitude":1.436704},{"number":100,"name":"00100 - PORT SAINT-SAUVEUR","address":"16 ALL PAUL SABATIER","latitude":43.596652,"longitude":1.45564},{"number":215,"name":"00215 - METRO ARGOULETS","address":"FACE 8 RUE DE GAILLAC","latitude":43.623823,"longitude":1.475935},{"number":54,"name":"00054 - CHAINE","address":"10 RUE DE LA CHAINE","latitude":43.608674,"longitude":1.439461},{"number":8,"name":"00008 - ESPACE SAINT-GEORGES","address":"19 RUE PAUL VIDAL","latitude":43.603205,"longitude":1.448118},{"number":180,"name":"00180 - PLACE DE SOUPETARD","address":"3 PLACE DE SOUPETARD","latitude":43.612162,"longitude":1.477347},{"number":277,"name":"00277 - ZAMENHOF","address":"10/12 RUE ZAMENHOF","latitude":43.585431,"longitude":1.377279},{"number":214,"name":"00214 - CASTRES - ACHIARY","address":"48 AV DE CASTRES","latitude":43.600828,"longitude":1.473579},{"number":114,"name":"00114 - MONTPLAISIR - CANAL","address":"8 BD MONPLAISIR","latitude":43.592438,"longitude":1.457925},{"number":2,"name":"00002 - LAFAYETTE","address":"21 RUE LAFAYETTE","latitude":43.604885,"longitude":1.445306},{"number":199,"name":"00199 - DELTOUR - RIEUX","address":"4 BD DELTOUR","latitude":43.591484,"longitude":1.470014},{"number":223,"name":"00223 - ENAC","address":"7 AV EDOUARD BELIN ANGLE AV ROCHE RD-PT GUY DU MERLE","latitude":43.565079,"longitude":1.478297},{"number":164,"name":"00164 - BEDOUCE - SAOUZELONG","address":"FACE 79 AV ALBERT BEDOUCE","latitude":43.579846,"longitude":1.460126},{"number":51,"name":"00051 - DUPORTAL - BRIENNE","address":"1 BD ARMAND DUPORTAL","latitude":43.605618,"longitude":1.434502},{"number":10,"name":"00010 - PLACE ESQUIROL","address":"15 PL ETIENNE ESQUIROL","latitude":43.600348,"longitude":1.444659},{"number":35,"name":"00035 - PLACE JEANNE D'ARC","address":"1 RUE RAYMOND IV","latitude":43.609602,"longitude":1.446881},{"number":250,"name":"00250 - 11 NOVEMBRE","address":"RUE DU 11 NOVEMBRE FACE 45 RUE DU 14 JUILLET","latitude":43.593052,"longitude":1.414659},{"number":45,"name":"00045 - OZENNE","address":"10 RUE THEODORE OZENNE","latitude":43.596314,"longitude":1.447081},{"number":83,"name":"00083 - SEJOURNE - AMIDONNIERS","address":"2 AV PAUL SEJOURNE","latitude":43.605687,"longitude":1.428225},{"number":47,"name":"00047 - NAZARETH - LANGUEDOC","address":"12 RUE DU LANGUEDOC","latitude":43.595247,"longitude":1.445416},{"number":231,"name":"00231 - NARBONNE MARFAING","address":"FACE 215 RTE DE NARBONNE ANGLE ALL EMILE DURAND","latitude":43.557264,"longitude":1.46541},{"number":44,"name":"00044 - PALAIS NIEL","address":"1 ALL FORAIN FRANCOIS VERDIER","latitude":43.597825,"longitude":1.451609},{"number":171,"name":"00171 - ROUTE D ALBI - PELET","address":"191 RTE D'ALBI","latitude":43.641034,"longitude":1.466458},{"number":162,"name":"00162 - PLACE D'ITALIE","address":"FACE 49 AV D' ITALIE","latitude":43.580296,"longitude":1.45486},{"number":138,"name":"00138 - BARRIERE DE BAYONNE","address":"3 BD JEAN BRUNHES","latitude":43.597908,"longitude":1.420144},{"number":216,"name":"00216 - ARGOULETS - HOUDON","address":"3 RUE JEAN HOUDON","latitude":43.622823,"longitude":1.474083},{"number":194,"name":"00194 - LOMBEZ - HIPPODROME","address":"138 AV DE LOMBEZ","latitude":43.593974,"longitude":1.410268},{"number":98,"name":"00098 - PONT DES DEMOISELLES","address":"80 ALL DES DEMOISELLES","latitude":43.58771,"longitude":1.459838},{"number":263,"name":"00263 - LYCEE POLYVALENT","address":"87 AV JEAN BAYLET / ANGLE CHEMIN CEPIERES SUR PARKING LYCEE POLYVALENT","latitude":43.584444,"longitude":1.398745},{"number":16,"name":"00016 - STRASBOURG - BAYARD","address":"32 BD DE STRASBOURG","latitude":43.607847,"longitude":1.446666},{"number":169,"name":"00169 - ROUTE D'ALBI - JAFFARY","address":"65 RTE D'ALBI","latitude":43.632532,"longitude":1.463081},{"number":39,"name":"00039 - PLACE DAMLOUP","address":"9 PL DE DAMLOUP","latitude":43.605855,"longitude":1.452805},{"number":201,"name":"00201 - POTEZ -SAINT-EXUPERY","address":"256 AV ANTOINE DE ST EXUPERY","latitude":43.579763,"longitude":1.480838},{"number":198,"name":"00198 - LAFILAIRE - DELTOUR","address":"FACE 25 CHEMIN LAFILAIRE","latitude":43.596193,"longitude":1.473375},{"number":258,"name":"00258 - CAMBARD","address":"BD ATLANTA / ANGLE RUE CAMBARD","latitude":43.629395,"longitude":1.476186},{"number":56,"name":"00056 - SAINT-SERNIN - MERLY","address":"1 RUE MERLY","latitude":43.609191,"longitude":1.442749},{"number":159,"name":"00159 - U.R.S.S DEVIC","address":"96 AV JULES JULIEN","latitude":43.578572,"longitude":1.450234},{"number":72,"name":"00072 - FITTE - CUGNAUX","address":"23 ALL CHARLES DE FITTE","latitude":43.59522,"longitude":1.432503},{"number":146,"name":"00146 - SANG DE SERP - DAGNAUX","address":"57 CHEMIN DU SANG DE SERP","latitude":43.61567,"longitude":1.428308},{"number":261,"name":"00261 - VAN DYCK - LAUNAGUET","address":"DEVANT 6 RUE VAN DICK / FACE RUE RAPHAEL","latitude":43.640631,"longitude":1.440154},{"number":151,"name":"00151 - CURIE - NEGRENEYS","address":"27 BD PIERRE ET MARIE CURIE","latitude":43.624514,"longitude":1.443326},{"number":238,"name":"00238 - HERBETTES - BUTTE","address":"FACE 48/58 CHEMIN DE LA BUTTE","latitude":43.579341,"longitude":1.47313},{"number":80,"name":"00080 - FITTE - VARSI","address":"89B ALLEE CHARLES DE FITTE","latitude":43.599637,"longitude":1.429338},{"number":57,"name":"00057 - MERLY - ARCOLE","address":"15 RUE MERLY","latitude":43.6103,"longitude":1.442975},{"number":269,"name":"00269 - PLACE SAUVEGRAIN","address":"PL JACQUES SAUVEGRAIN / ANGLE AV DE LARDENNES","latitude":43.589921,"longitude":1.377827},{"number":285,"name":"00285 - METRO BALMA GRAMONT","address":"METRO GRAMONT / ANGLE RUE SAINT JEAN","latitude":43.628659,"longitude":1.482629},{"number":58,"name":"00058 - CONCORDE - ARCOLE","address":"4 RUE DE LA CONCORDE","latitude":43.610663,"longitude":1.443637},{"number":272,"name":"00272 - ANDRE VASSEUR","address":"BD ATLANTA / FACE 31 RUE ANDRE VASSEUR","latitude":43.635421,"longitude":1.472855},{"number":95,"name":"00095 - THEATRE GARONNE","address":"4 AV DU CHÂTEAU D'EAU","latitude":43.602426,"longitude":1.425347},{"number":222,"name":"00222 - CAMBOU - ROCHE","address":"15 AV DU COLONEL ROCHE","latitude":43.563894,"longitude":1.474416},{"number":92,"name":"00092 - CHALETS","address":"31 RUE DES CHALETS","latitude":43.613149,"longitude":1.441326},{"number":38,"name":"00038 - JAURES - BACHELIER","address":"54 ALLEE JEAN JAURES","latitude":43.607222,"longitude":1.451244},{"number":140,"name":"00140 - PLACE EMILE MALE","address":"PLACE EMILE MALE","latitude":43.591661,"longitude":1.418768},{"number":4,"name":"00004 - SAINTE-URSULE","address":"15 RUE SAINTE-URSULE","latitude":43.602671,"longitude":1.442031},{"number":136,"name":"00136 - FONTAINES","address":"FACE 175 RUE DES FONTAINES","latitude":43.60202,"longitude":1.414772},{"number":176,"name":"00176 - GENERAL COMPANS","address":"1 RUE DU GENERAL COMPANS","latitude":43.606701,"longitude":1.458143},{"number":142,"name":"00142 - LYCEE DEODAT DE SEVERAC","address":"FACE AU 65 BD DEODAT DE SEVERAC","latitude":43.588046,"longitude":1.42436},{"number":237,"name":"00237 - CNRS","address":"16 BIS AV EDOUARD BELIN FACE CNRS","latitude":43.562273,"longitude":1.480912},{"number":28,"name":"00028 - PLACE SAINT-PIERRE","address":"2 PLACE SAINT-PIERRE","latitude":43.603228,"longitude":1.436034},{"number":182,"name":"00182 - CHAUBET","address":"FACE 155 AV JEAN CHAUBET","latitude":43.60592,"longitude":1.481742},{"number":94,"name":"00094 - SEMARD GARE ROUTIERE","address":"76 BD DE LA GARE","latitude":43.614083,"longitude":1.451158},{"number":206,"name":"00206 - LEYGUE - RIEUX","address":"20 AV ARMAND LEYGUE","latitude":43.594117,"longitude":1.465197},{"number":127,"name":"00127 - BEGUE - DEMOISELLES","address":"1 RUE BEGUE","latitude":43.589802,"longitude":1.455967},{"number":279,"name":"00279 - GUY ESPAGNO","address":"AV DE CASSELARDIT / ANGLE AV DU PR GUY ESPAGNO","latitude":43.613555,"longitude":1.401417},{"number":88,"name":"00088 - DUPORTAL - LASCROSSES","address":"17T BD LASCROSSES","latitude":43.61009,"longitude":1.434974},{"number":251,"name":"00251 - BLUM - JOUHAUX","address":"26 AV LEON BLUM ANGLE RUE LEON JOUHAUX","latitude":43.61432,"longitude":1.461721},{"number":226,"name":"00226 - FONTAINES - CASSELARDIT","address":"FACE 287 RUE DES FONTAINES ANGLE AV DE CASSELARDIT","latitude":43.604159,"longitude":1.407267},{"number":91,"name":"00091 - ARCOLE - BALANCE","address":"48 BD D'ARCOLE","latitude":43.611556,"longitude":1.439662},{"number":122,"name":"00122 - PASSERELLE HAEDENS","address":"57 BD DE L EMBOUCHURE","latitude":43.613504,"longitude":1.430339},{"number":185,"name":"00185 - ROUBICHOU - ARLES","address":"30 RUE ROUBICHOU","latitude":43.627108,"longitude":1.465538},{"number":27,"name":"00027 - QUAI DE TOUNIS","address":"20 M APRES 122 QUAI DE TOUNIS","latitude":43.598966,"longitude":1.440387},{"number":220,"name":"00220 - TABAR - UNIVERSITE JEAN JAURES","address":"3 RUE DE L'UNIVERSITE","latitude":43.574466,"longitude":1.402211},{"number":209,"name":"00209 - BAROUX - DARASSE","address":"4 AV LUCIEN BAROUX","latitude":43.589557,"longitude":1.4789},{"number":78,"name":"00078 - PLACE INT - SAINT-CYPRIEN - DARRE","address":"14 PL INTERIEURE ST CYPRIEN","latitude":43.598124,"longitude":1.431382},{"number":26,"name":"00026 - DALBADE - DE GORSSE","address":"9 RUE HENRY DE GORSSE","latitude":43.597941,"longitude":1.443002},{"number":230,"name":"00230 - RANGUEIL TRIPODE B","address":"141 AV DE RANGUEIL","latitude":43.567307,"longitude":1.467715},{"number":149,"name":"00149 - RAISIN - MINIMES","address":"FACE 2 CHEMIN DU RAISIN","latitude":43.61539,"longitude":1.448573},{"number":59,"name":"00059 - CONCORDE","address":"61 RUE DE LA CONCORDE","latitude":43.613442,"longitude":1.446395},{"number":42,"name":"00042 - DAURIAC - ESCANDE","address":"3 BD PR LEOPOLD ESCANDE / FACE ASSURANCE MALADIE HG","latitude":43.601607,"longitude":1.456158},{"number":107,"name":"00107 - SEBASTOPOL","address":"1 RUE DE SEBASTOPOL","latitude":43.60962,"longitude":1.430401},{"number":246,"name":"00246 - WAGNER - BRUNHES","address":"29 BD RICHARD WAGNER ANGLE BD JEAN BRUNHES","latitude":43.603842,"longitude":1.420002},{"number":219,"name":"00219 - PUCCINI - ROUTE DE BLAGNAC","address":"35 RUE GIACOMO PUCCINI","latitude":43.614514,"longitude":1.411161},{"number":163,"name":"00163 - BEDOUCE - MIDI","address":"115 AV ALBERT BEDOUCE","latitude":43.581506,"longitude":1.462341},{"number":99,"name":"00099 - REMPART SAINT-ETIENNE","address":"7 RUE DU REMPART ST ETIENNE","latitude":43.6008250248339,"longitude":1.45065484986121},{"number":267,"name":"00267 - GONIN","address":"2 IMP GASTON GENIN ANGLE RUE CLAUDE GONIN","latitude":43.573895,"longitude":1.483924},{"number":113,"name":"00113 - DUMERIL - LAMARCK","address":"FACE 58 RUE DUMERIL","latitude":43.592349,"longitude":1.449015},{"number":133,"name":"00133 - MARCHE AUX COCHONS","address":"71 AV DES MINIMES","latitude":43.620693,"longitude":1.435612},{"number":148,"name":"00148 - COLLIGNON","address":"5 AV DE COLLIGNON","latitude":43.61657,"longitude":1.444112},{"number":283,"name":"00283 - PLACE MICOULEAU","address":"12 RUE DU COL PAUL PAILLOLE / PL MICOULEAU","latitude":43.638055,"longitude":1.444344},{"number":167,"name":"00167 - LAPUJADE - FLANDRES","address":"RUE LAPUJADE / ANGLE RUE DES FLANDRES","latitude":43.624202,"longitude":1.454685},{"number":205,"name":"00205 - COTTAGE - RIEUX","address":"58 AV DES COTTAGES","latitude":43.585924,"longitude":1.475057},{"number":265,"name":"00265 - PASSAGE BORDELONGUE","address":"PASSAGE DU CANAL DE BORDELONGUE FACE 251 RTE DE SEYSSES","latitude":43.568038,"longitude":1.413363},{"number":116,"name":"00116 - SAINT-MICHEL - NOTRE DAME","address":"50 GRANDE RUE SAINT-MICHEL","latitude":43.588178,"longitude":1.446446},{"number":86,"name":"00086 - HERACLES - BEARNAIS","address":"23 RUE DU BEARNAIS","latitude":43.608004,"longitude":1.428585},{"number":66,"name":"00066 - JARDIN ROYAL","address":"RUE DU 8 MAI 1945 / FACE JARDIN ROYAL","latitude":43.596419,"longitude":1.45104},{"number":34,"name":"00034 - SAINT-LAZARE - BOSC","address":"15 RUE JOSEPH BOSC","latitude":43.609766,"longitude":1.445681},{"number":240,"name":"00240 - PLACE JOB - RTE DE BLAGNAC","address":"FACE 103 BIS ROUTE DE BLAGNAC","latitude":43.616945,"longitude":1.408383},{"number":119,"name":"00119 - BRIENNE - CHAPOU","address":"129 ALL DE BRIENNE","latitude":43.610005,"longitude":1.419568},{"number":275,"name":"00275 - PLACE DES PRADETTES","address":"41 AV LOUIS ARISTE PASSERIEU / PL DES PRADETTES","latitude":43.58144,"longitude":1.388774},{"number":18,"name":"00018 - STRASBOURG - JEAN JAURES","address":"4 BD DE STRASBOURG","latitude":43.606346,"longitude":1.44813},{"number":160,"name":"00160 - THEATRE JULES JULIEN","address":"21 AV DES ECOLES JULES JULIEN","latitude":43.57337,"longitude":1.452405},{"number":282,"name":"00282 - RICHARD WAGNER","address":"BD RICHARD WAGNER / ANGLE RUE ANTONIO VIVALDI","latitude":43.606115,"longitude":1.414755},{"number":130,"name":"00130 - BILLIERES - PATTE D OIE","address":"66 TER AV ETIENNE BILLIERES","latitude":43.596716,"longitude":1.424382},{"number":12,"name":"00012 - PARGAMINIERES","address":"66 RUE PARGAMINIERES","latitude":43.60459,"longitude":1.44002},{"number":117,"name":"00117 - BILLIERES - POSTE","address":"39 AVENUE ETIENNE BILLIERES","latitude":43.596889,"longitude":1.426109},{"number":43,"name":"00043 - DUPUY","address":"14 PL DOMINIQUE MARTIN DUPUY","latitude":43.600188,"longitude":1.454764},{"number":232,"name":"00232 - NARBONNE - MIROUSE","address":"73 RTE DE NARBONNE","latitude":43.569089,"longitude":1.456292},{"number":61,"name":"00061 - BONREPOS","address":"12 BD DE BONREPOS","latitude":43.611052,"longitude":1.452593},{"number":211,"name":"00211 - LE DORMEUR - LA TERRASSE","address":"9 RUE LE DORMEUR","latitude":43.583511,"longitude":1.487795},{"number":165,"name":"00165 - PLACE DES AVIONS","address":"33 AVENUE DES AVIONS","latitude":43.57688,"longitude":1.460189},{"number":278,"name":"00278 - ARENES ROMAINES","address":"RD PT ANGLE AV DES ARENES ROMAINES RUE JEAN ESPITALIER","latitude":43.614159,"longitude":1.397008},{"number":270,"name":"00270 - SILVIO TRENTIN","address":"RUE JULES VERNE / ANGLE FACE 40 BD SILVIO TRENTIN","latitude":43.623998,"longitude":1.427823},{"number":17,"name":"00017 - STRASBOURG - SARDANE","address":"7 BD DE STRASBOURG","latitude":43.606499,"longitude":1.44769},{"number":46,"name":"00046 - PLACE DES CARMES","address":"1 PL DES CARMES","latitude":43.597364,"longitude":1.445314},{"number":218,"name":"00218 - AMOUROUX - SAINTE-AUGUSTINE","address":"24 BIS CHE AMOUROUX","latitude":43.627643,"longitude":1.461861},{"number":203,"name":"00203 - SAINT-EXUPERY - PETIT PRINCE","address":"2 AV ANTOINE DE ST EXUPERY","latitude":43.58355,"longitude":1.470033},{"number":132,"name":"00132 - MINIMES - BAQUE","address":"101 AVENUES DES MINIMES","latitude":43.622966,"longitude":1.434449},{"number":145,"name":"00145 - GOUNOD - GARROS","address":"29 RUE ROLAND GARROS","latitude":43.613881,"longitude":1.424953},{"number":32,"name":"00032 - MUSEE SAINT-RAYMOND","address":"2 PLACE SAINT-SERNIN / ANGLE 2 RUE DES 3 RENARDS","latitude":43.607608,"longitude":1.441304},{"number":5,"name":"00005 - LEDUC","address":"FACE AU 5 RUE RENE LEDUC","latitude":43.611386,"longitude":1.456729},{"number":110,"name":"00110 - CABANEL - SERRES","address":"16 RUE ALEXANDRE CABANEL","latitude":43.614227,"longitude":1.437999},{"number":125,"name":"00125 - BARRIERE DE PARIS","address":"FACE AU 2 BARRIERE DE PARIS","latitude":43.627017,"longitude":1.434129},{"number":63,"name":"00063 - PISCINE LEO LAGRANGE","address":"54 RUE DES SEPT TROUBADOURS","latitude":43.607468,"longitude":1.454329},{"number":177,"name":"00177 - BAILLAUD - BRUNAUD","address":"64 RUE BAILLAUD","latitude":43.617458,"longitude":1.465428},{"number":73,"name":"00073 - FITTE - TEINTURIERS","address":"40 ALLEE CHARLES DE FITTE","latitude":43.596294,"longitude":1.432158},{"number":14,"name":"00014 - PERIGORD","address":"26 RUE DE PERIGORD","latitude":43.60742,"longitude":1.444699},{"number":181,"name":"00181 - PLANA - GARNIER","address":"27 AV LOUIS PLANA","latitude":43.609275,"longitude":1.479898},{"number":50,"name":"00050 - GARONNETTE","address":"1 AV MAURICE HAURIOU","latitude":43.594359,"longitude":1.44095},{"number":20,"name":"00020 - CARNOT - TROIS JOURNEES","address":"69 BD LAZARE CARNOT","latitude":43.604677,"longitude":1.449586},{"number":155,"name":"00155 - RECOLLETS","address":"34 BD DES RECOLLETS","latitude":43.583787,"longitude":1.443299},{"number":264,"name":"00264 - LAFOURGUETTE","address":"PLACE DES GLIERES","latitude":43.565027,"longitude":1.410324},{"number":256,"name":"00256 - PLACE DE LA RONTONDE","address":"FACE 176 AV DE CASTRES","latitude":43.59643,"longitude":1.48398},{"number":69,"name":"00069 - FEUGA","address":"11 ALL PAUL FEUGA","latitude":43.592388,"longitude":1.442463},{"number":157,"name":"00157 - URSS - PEYROUSET","address":"16 AV DE L'U.R.S.S","latitude":43.58295,"longitude":1.448578},{"number":189,"name":"00189 - MURET - BOUTINON","address":"44 AVENUE DE MURET","latitude":43.581816,"longitude":1.425713}]