[{"number":198,"name":"198_CALLE_FONTANARS_DELS_AFORINS","address":"Fontanars dels Aforins - Vall d'Uixó","latitude":39.4608480566945,"longitude":-0.3954071515343},{"number":3,"name":"003_PLAZA_MUSICO_LOPEZ_CHAVARRI","address":"Plaza del Musico López Chavarri","latitude":39.4768031153802,"longitude":-0.38037911504075},{"number":233,"name":"233_SAN_JUAN_BOSCO_SANTIAGO_RUSIÑOL","address":"San Juan Bosco - Santiago Rusiñol","latitude":39.497128187401,"longitude":-0.369528093405798},{"number":211,"name":"211_CALLE_FRAY_JUNÍPERO_SERRA_ESQ_CALLE_VALL_D'UIX","address":"Fray Junípero Serra - Vall d'Uixó","latitude":39.4586940486343,"longitude":-0.397848157697943},{"number":98,"name":"098_SANTOS JUSTO Y PASTOR","address":"Justo y Pastor - Duque de Gaeta","latitude":39.4696481015324,"longitude":-0.348533015740284},{"number":76,"name":"076_CAMPOAMOR II","address":"Campoamor - Músico Ginés","latitude":39.4700511045018,"longitude":-0.343552001034738},{"number":116,"name":"116_C/ DR. VICENTE ZARAGOZA","address":"Doctor Vicente Zaragozá - Ramón Asensio","latitude":39.4832211443412,"longitude":-0.357652050365347},{"number":21,"name":"021_JUAN_LLORENS_29","address":"Juan Llorens - Literato Gabriel Miró","latitude":39.4723390971218,"longitude":-0.390305142409828},{"number":193,"name":"193_CALLE_CARTEROS","address":"Uruguay - Carteros","latitude":39.4551140401216,"longitude":-0.38680912265075},{"number":268,"name":"268_PZA_LUIS_CANO_5","address":"Plaza Luis Cano, 5","latitude":39.5014131861577,"longitude":-0.418584242795808},{"number":247,"name":"247_AVDA_TRES_CRUCES_MUSICO_AYLLON","address":"Tres Cruces - Músico Ayllón","latitude":39.4673780754272,"longitude":-0.405664185821979},{"number":31,"name":"031_CALLE SALAMANCA","address":"Salamanca - Conde Altea","latitude":39.4673330883642,"longitude":-0.365119064198398},{"number":99,"name":"099_AVDA. BLASCO IBAÑEZ 166_PINTOR JOSÉ MONGRELL","address":"Blasco Ibañez 166 - Pintor José Mongrell","latitude":39.4713121097146,"longitude":-0.34057499279659},{"number":255,"name":"255_SAN_VICENTE_MARTIR_TOMAS_DE_VILLAROYA","address":"Tomas de Villarroya - San Vicente","latitude":39.4476710152215,"longitude":-0.386120116565009},{"number":246,"name":"246_AVDA_TRES_CRUCES_ENTRADA_HOSPITAL_GENERAL","address":"Tres Cruces - Hospital General","latitude":39.469058080797,"longitude":-0.406600189533111},{"number":41,"name":"41_AVDA. GRAL. URRUTIA","address":"General Urrutia - Granada","latitude":39.4588800599356,"longitude":-0.364867058884755},{"number":26,"name":"026_CALLE_SAN_JOSE_DE_CALASANZ","address":"San José de Calasanz - Salas Quiroga","latitude":39.466303,"longitude":-0.385955},{"number":12,"name":"012_CALLE_MINYANA","address":"Calle Salvá - Calle Poeta Querol","latitude":39.471935,"longitude":-0.374101},{"number":159,"name":"159_FRANCISCO CUBELLS","address":"Francisco Cubells - San José de la Vega","latitude":39.4634170849731,"longitude":-0.334812971276553},{"number":134,"name":"134_C/ MAXIMILIANO THOUS","address":"Maximiliano Thous - Luz Casanova","latitude":39.4876241541086,"longitude":-0.373430100012801},{"number":179,"name":"179_AVENIDA_DE_LA_PLATA_45","address":"Av. de la Plata - Zapadores","latitude":39.4554400477968,"longitude":-0.366517061973888},{"number":235,"name":"235_CONDE_DE_TORREFIEL_CECILIO_PLA","address":"Conde Torrefiel - Cecilio Plá","latitude":39.4980131878952,"longitude":-0.377294117154526},{"number":172,"name":"172_AVENIDA_PIO_XII","address":"Pío XII - Campanar","latitude":39.4814301267876,"longitude":-0.39343615667867},{"number":274,"name":"274_MANUEL_ANDRES_CASTELL_DE_POLOP","address":"San Francisco de Paula - Castell de Pop","latitude":39.4480380336336,"longitude":-0.333278958357397},{"number":217,"name":"217_CALLE_9_DE_OCTUBRE_ESQ_CALLE_PINTOR_STOLZ","address":"Pintor Stolz - Nueve de Octubre","latitude":39.4702960855926,"longitude":-0.404687184457659},{"number":81,"name":"081_DOCTOR FORNOS","address":"Micer Mascó - Rodriguez Fornos","latitude":39.4750961158493,"longitude":-0.361069056238335},{"number":28,"name":"028_NAVARRO REVERTE","address":"Navarro Reverter - Grabador Esteve","latitude":39.4715501017061,"longitude":-0.367842074631205},{"number":131,"name":"131_CALLE SANTA AMALIA  2","address":"CALLE SANTA AMALIA  2, esquina POETA BODRIA","latitude":39.481385,"longitude":-0.373003},{"number":1,"name":"001_GUILLEN_DE_CASTRO","address":"C/GUILLEM DE CASTRO esquina con C/NA JORDANA","latitude":39.48001,"longitude":-0.38302},{"number":48,"name":"48_AVDA. ANTONIO FERRANDIS","address":"Antonio Ferrandis - General Urrutia","latitude":39.4507751420051,"longitude":-0.358643429344464},{"number":112,"name":"112_AVDA. DE LOS NARANJOS","address":"Manuel Broseta i Pont - Naranjos","latitude":39.4785481335207,"longitude":-0.342366002058633},{"number":122,"name":"122_C_MÚSICO HIPÓLITO MARTÍNEZ","address":"Músico Hipólito Martínez - Diógenes López Mecho","latitude":39.4844531496192,"longitude":-0.354157040555065},{"number":243,"name":"243_ALBACETE_ESQ_MALUQUER","address":"Albacete - Maluquer","latitude":39.4627880667241,"longitude":-0.384633120260506},{"number":82,"name":"082_GUILLEN_DE_CASTRO_TORRES_DE_QUART","address":"Guillem de Castro (Torres de Quart)","latitude":39.4760241115844,"longitude":-0.384005125495213},{"number":165,"name":"165_PAVIA 2","address":"Pavía - Espadán","latitude":39.4713771150833,"longitude":-0.324660945171817},{"number":106,"name":"106_AVDA. DE LOS NARANJOS","address":"Albalat dels Tarongers - Professor Ernest Lluch","latitude":39.4767121276205,"longitude":-0.341477998410525},{"number":265,"name":"265_C_ALCASSER_POETA_ALBERTO_LISTA","address":"Alcasser - Poeta Alberto Lista","latitude":39.4709410866358,"longitude":-0.408208195369257},{"number":238,"name":"238_SAN_JOSE_ARTESANO_FRANCISCO_MOROTE_GREUS","address":"San Jose Artesano - Francisco Morote Greus","latitude":39.4974171803837,"longitude":-0.394474168343446},{"number":63,"name":"063_AVDA. DEL PUERTO I","address":"Av Puerto 19 (Telefónica)","latitude":39.4677470918986,"longitude":-0.358505044597536},{"number":47,"name":"47_AVDA. AUTOPISTA DEL SALER","address":"Autopista del Saler - Puente Monteolivete","latitude":39.4564800548746,"longitude":-0.355509029538065},{"number":56,"name":"56_AVDA. DE FRANCIA","address":"Francia - Menorca","latitude":39.4583890648843,"longitude":-0.344495997567289},{"number":227,"name":"227_CALLE_SAN_CLEMENTE_ENTRA_HOSPITAL_ARNAU_VILANO","address":"San Clemente - Hospital Arnau de Vilanova","latitude":39.4902161533539,"longitude":-0.403022190134151},{"number":232,"name":"232_SAN_VICENTE_DE_PAUL_SANTIAGO_RUSIÑOL","address":"San Vicente Paul - Santiago Rusiñol","latitude":39.4946121801023,"longitude":-0.365844081019678},{"number":169,"name":"169_PAVIA 4","address":"Pavía (Instituto Isabel de Villena)","latitude":39.4787531399051,"longitude":-0.324735949373236},{"number":49,"name":"49_C/ RICARDO MUÑOZ SUAY","address":"Ricardo Muñoz Suay - María José Victoria Fuster (C.C. El Saler)","latitude":39.4529547221767,"longitude":-0.35720111550767},{"number":121,"name":"121_C_MURTA","address":"Murta - Sant Eperit","latitude":39.4861501538243,"longitude":-0.358862055563278},{"number":143,"name":"143_AVDA. MENENDEZ PIDAL","address":"Pio XII - Menéndez PIdal (Nuevo Centro)","latitude":39.4795051210676,"longitude":-0.391027148421504},{"number":115,"name":"115_C/ DR. VICENTE ZARAGOZA","address":"Cataluña - Doctor Vicente Zaragozá","latitude":39.4815301403857,"longitude":-0.352239033238509},{"number":215,"name":"215_CALLE_MUSICO_AYLLON_ESQ_CALLE_FRANCISCO_DOLZ","address":"Músico Ayllón - Francisco Dolz","latitude":39.4656390724037,"longitude":-0.39683915840866},{"number":204,"name":"204_AVDA_GENERAL_AVILES","address":"Corts Valencianes - General Avilés","latitude":39.4858111405269,"longitude":-0.396678168748875},{"number":261,"name":"261_PZA_XUQUER_ESQ_VINALOPO","address":"Plaza Xuquer - Vinalopó","latitude":39.4766441244888,"longitude":-0.350468025305313},{"number":102,"name":"102_AVDA.RAMON LLUL","address":"Ramón Llull - Serpis","latitude":39.4758011228282,"longitude":-0.346811013895548},{"number":32,"name":"032_C/ CONDE DE ALTEA","address":"Conde Altea - Almirante Cadarso","latitude":39.4659740827401,"longitude":-0.368338073115823},{"number":79,"name":"079_AVDA. ARAGON II","address":"Aragón - Ernesto Ferrer","latitude":39.4727471091356,"longitude":-0.357333043778256},{"number":8,"name":"008_PLAZA_DE_LA_REINA_ESQUINA_CALLE_DEL_MAR","address":"Plaza de la Reina - Mar","latitude":39.473849,"longitude":-0.375389},{"number":190,"name":"190_CTRA_MALILLA","address":"Cra. Malilla - Bulevar Sur","latitude":39.4460500116106,"longitude":-0.380387098491455},{"number":52,"name":"52_C/ LUIS GARCIA BERLANGA","address":"Luis García Berlanga Martí - Menorca","latitude":39.4560020562084,"longitude":-0.346431002074561},{"number":234,"name":"234_PLAZA MUSICO_ESPI_JOSE_ESTEVE","address":"Plaza Músico Espí","latitude":39.496467183824,"longitude":-0.373735105660714},{"number":155,"name":"155_C/ SALAMANCA","address":"Salamanca - Reina Doña Germana","latitude":39.4649210808604,"longitude":-0.363169057053421},{"number":152,"name":"152_C/ LITERATO AZORÍN","address":"Reina Doña María - Cádiz","latitude":39.4608930641588,"longitude":-0.372796083742631},{"number":237,"name":"237_LEVANTE_UD_AVDA_ECUADOR","address":"Levante U.D. - Ecuador","latitude":39.4947261723789,"longitude":-0.391129156875508},{"number":108,"name":"108_ LUIS PEIXO","address":"Luís Peixó 20","latitude":39.473794,"longitude":-0.334006},{"number":67,"name":"067_JUAN VERDEGUER","address":"Juan Verdeguer - Toneleros","latitude":39.4588280688327,"longitude":-0.336888975014669},{"number":120,"name":"120_C_DR VICENTE ZARAGOZA","address":"Doctor Vicente Zaragozá - Emilio Baró","latitude":39.4848481483816,"longitude":-0.362137064678155},{"number":19,"name":"019_JUAN_LLORENS","address":"Juan Llorens - Quart","latitude":39.4743371034203,"longitude":-0.391681147609965},{"number":25,"name":"025_CALLE_DEL_ALBERIC","address":"Alberique, 18 (Abastos)","latitude":39.4676970819754,"longitude":-0.388701135103807},{"number":178,"name":"178_CALLE_REIG_GENOVES","address":"Reig Genovés - Ramón Contreras Mongrell","latitude":39.4921841703923,"longitude":-0.37059709396399},{"number":186,"name":"186_CALLE_INGENIERO_JOAQUIN_BENLLOCH","address":"Benifairó de Valldigna - Joaquín Benlloch","latitude":39.4503590281921,"longitude":-0.374106081983545},{"number":94,"name":"094_AVDA. BLASCO IBAÑEZ 5","address":"Blasco Ibañez - Clariano","latitude":39.4753461197244,"longitude":-0.351674028220146},{"number":39,"name":"39_AVDA. PERIS Y VALERO","address":"Peris y Valero - Cuba","latitude":39.457822053401,"longitude":-0.374022085762198},{"number":140,"name":"140_AVENIDA_CAMPANAR","address":"Campanar - Nicasio Benlloch","latitude":39.4879721500597,"longitude":-0.38969114895134},{"number":128,"name":"128_C/ ALFAUIR","address":"Alfahuir - Peñiscola","latitude":39.4887341597133,"longitude":-0.367635083238739},{"number":130,"name":"130_C/ CONVENTO CARMELITAS","address":"Convento Carmelitas - Alboraya","latitude":39.4832061402186,"longitude":-0.370301088264948},{"number":107,"name":"107_C/ CAMPILLO ALTO BUEY","address":"Campillo de Altobuey (Polideportivo)","latitude":39.4752131242374,"longitude":-0.336314982139155},{"number":221,"name":"221_AVDA_MANUEL_DE_FALLA_ESQ_CALLE_HERNANDEZ_LAZAR","address":"Manuel de Falla - Hernández Lázaro","latitude":39.4752381028348,"longitude":-0.40294418188015},{"number":273,"name":"273_CALLE_MORAIRA_CALLE_DALT_DE_LA_MAR","address":"Moraira - Alta del Mar","latitude":39.4502730411407,"longitude":-0.33336295982062},{"number":17,"name":"017_ESTACION RENFE I","address":"Xátiva - Bailén (Estación del Norte)","latitude":39.4674360847595,"longitude":-0.377350100922523},{"number":147,"name":"147_CALLE_PIE_DE_LA_CRUZ_CALLE_DE_LA_REJA","address":"Pie de la Cruz - Rejas","latitude":39.4731691031481,"longitude":-0.38029811284559},{"number":18,"name":"018_COLON II","address":"Colón 20-22","latitude":39.4681590885325,"longitude":-0.373220088928677},{"number":256,"name":"256_AVDA_TRES_FORQUES_TURIS","address":"Tres Forques - Turís","latitude":39.4639310680958,"longitude":-0.392326143951058},{"number":119,"name":"119_C/ JAIME ROIG","address":"Jaime Roig - Bachiller","latitude":39.482488140046,"longitude":-0.363317066947724},{"number":164,"name":"164_PAVIA 1","address":"Pavía - Columbretes","latitude":39.4684281051279,"longitude":-0.324724943771547},{"number":138,"name":"138_SAN_PANCRACIO","address":"San Pancracio - Periodista Llorente","latitude":39.4881581524135,"longitude":-0.384313132924836},{"number":34,"name":"34_AVDA. ANTIGUO REINO DE VALENCIA","address":"Regne de Valencia - Doctor Sumsi","latitude":39.4640900758311,"longitude":-0.370052077239064},{"number":216,"name":"216_AVDA_DEL_CID_ESQ_CALLE_BURGOS","address":"Av. del Cid - Burgos","latitude":39.46913,"longitude":-0.399552},{"number":27,"name":"027_CALLE_SAN_VICENTE_MARTIR_129","address":"San Vicente Martir - Doctor Vilá Barberá","latitude":39.4633300694228,"longitude":-0.381942112481819},{"number":141,"name":"141_C/ GREGORIO GEA (PEATONAL)","address":"Gregorio Gea - Padre Ferris","latitude":39.4832361355125,"longitude":-0.385247133088568},{"number":96,"name":"096_AVDA. BLASCO IBAÑEZ 6","address":"Blasco Ibañez - Yecla","latitude":39.4735221146643,"longitude":-0.348305017144382},{"number":151,"name":"151_JERONIMO MONSORIU","address":"Jerónimo Monsoriu - Alcalde Cano Coloma","latitude":39.4646370882768,"longitude":-0.337207979114133},{"number":72,"name":"072_RAMIRO MAETZU","address":"Ramiro de Maeztu - Peris Brell","latitude":39.467225,"longitude":-0.346537},{"number":258,"name":"258_PINTOR_RAFAEL_SOLVES_ESQ_JOSE_SOTO_MICO","address":"Pintor Rafael Solves - Jose Soto Mico","latitude":39.4397959876251,"longitude":-0.38922812163005},{"number":58,"name":"058_PLAZA DE ESPAÑA","address":"Plaza España","latitude":39.4661860791448,"longitude":-0.381677113224894},{"number":70,"name":"70_CALLE_COLON_ESQ_ALMIRANTE_ROGER_DE_LAURIA","address":"Colón, 44","latitude":39.469181,"longitude":-0.371737},{"number":263,"name":"263_PADRE ESTEBAN_PERNET_ANTES_CASA_MISERICORDIA","address":"Padre Esteban Pernet - Casa Misericordia","latitude":39.4670110728758,"longitude":-0.409735197841415},{"number":207,"name":"207_CALLE_MILLARES_ESQ_CALLE_FEDERICO_GARCA_LORCA","address":"Giorgeta, 64","latitude":39.455361042514,"longitude":-0.381996108347568},{"number":118,"name":"118_C/ DR. GOMEZ FERRER","address":"Gómez Ferrer - Álvaro de Bazán","latitude":39.4804341340267,"longitude":-0.360507057423573},{"number":239,"name":"239_LA_FLORISTA_TRANVIA_PALACIO_CONGRESOS","address":"Florista - T4 (Palau de Congressos)","latitude":39.4969531770325,"longitude":-0.400055184833165},{"number":114,"name":"114_ADOLFO SUAREZ","address":"UPV Informática","latitude":39.4817721429927,"longitude":-0.346682016720988},{"number":213,"name":"213_CALLE_ARCHIDUQUE_CARLOS_ESQ_CALLE_JOSE_MA_MOR","address":"Archiduque Carlos - José María Mortes Lerma","latitude":39.4631330638726,"longitude":-0.397063157732616},{"number":111,"name":"111_UNIVERSIDAD POLITECNICA – JUNTO PISTAS DEPORTI","address":"UPV Galileo","latitude":39.480632,"longitude":-0.339599},{"number":254,"name":"254_AVDA_DR_TOMAS_SALA_CARTEROS","address":"Doctor Tomás Sala - Carteros","latitude":39.4476820139972,"longitude":-0.39000812823506},{"number":100,"name":"100_AVDA. BLASCO IBAÑEZ 9","address":"Blasco Ibañez - Mestre Ripoll","latitude":39.4716021114468,"longitude":-0.33824098596173},{"number":196,"name":"196_AVDA_GASPAR_AGUILAR","address":"Jerónimo Muñoz - Gaspar Aguilar","latitude":39.4595430546337,"longitude":-0.388157129082296},{"number":264,"name":"264_AVDA_CID_ANTES_MARCONI","address":"Av. del Cid - Marconi","latitude":39.469128078481,"longitude":-0.414523213347863},{"number":137,"name":"137_CALLE_ECONOMISTA_GAY","address":"Economista Gay - Luis Crumiere","latitude":39.4890011566455,"longitude":-0.379987120406342},{"number":168,"name":"168_AVDA. MALVARROSA","address":"Malvarrosa - Río Tajo","latitude":39.4768391324101,"longitude":-0.327977958049006},{"number":248,"name":"248_AVDA_TRES_CRUCES_JOSE_MARIA_MORTES_LERMA","address":"Tres Cruces - Jose Maria Mortes Lerma","latitude":39.4628080601935,"longitude":-0.40506018155276},{"number":201,"name":"201_AVDA_PEREZ_GALDOS","address":"Perez Galdós - Nou Moles","latitude":39.471680093785,"longitude":-0.393759152416117},{"number":174,"name":"174_CALLE_MONDUBER","address":"Monduber - Peset Aleixandre","latitude":39.4894061558441,"longitude":-0.386738140863954},{"number":77,"name":"77_C/ MOLINELL","address":"Molinell - Calderón de la Barca","latitude":39.4849411475299,"longitude":-0.365758075579642},{"number":203,"name":"203_CALLE_REINA_VIOLANTE","address":"Reina Violante - Escultor García Mas","latitude":39.4845771348881,"longitude":-0.401273181871356},{"number":74,"name":"074_PLAZA SAN FELIPE NERI","address":"Plaza San Felipe Neri (Mercado Algirós)","latitude":39.4699171007281,"longitude":-0.353825031741888},{"number":209,"name":"209_AVDA_GASPAR_AGUILAR_ESQ_CALLE_MUSICO_PENELLA","address":"Gaspar Aguilar - Músico Penella","latitude":39.4520500277393,"longitude":-0.393106139888379},{"number":167,"name":"167_PAVIA 3","address":"Pavía - Acequia de la Cadena","latitude":39.4748761268572,"longitude":-0.324700947178956},{"number":7,"name":"007_PZA_DEL_MERCADO_TAULA_DE_CANVIS","address":"Plaza del Mercado - Taula de Canvis","latitude":39.4748401091142,"longitude":-0.379276110679168},{"number":104,"name":"104_ALBALAT DELS TARONGERS","address":"Albalat dels Tarongers - Paseo Facultades","latitude":39.4783541312533,"longitude":-0.34736601693197},{"number":110,"name":"110_KISSHOMARU","address":"UPV Trinquet","latitude":39.4807081426045,"longitude":-0.336770986463246},{"number":97,"name":"097_AVDA. BLASCO IBAÑEZ 7","address":"Blasco Ibañez 121","latitude":39.4730361146687,"longitude":-0.343223001657882},{"number":231,"name":"231_CALLE_DE_ALCAÑIZ_ESQ_CALLE_CAMBRILS","address":"Alcañiz - Cambrils","latitude":39.4950401774174,"longitude":-0.378712119815713},{"number":123,"name":"123_C_ALBOCACER","address":"Albocácer - Vinaroz","latitude":39.4876391568909,"longitude":-0.364932074551232},{"number":46,"name":"46_AVDA. INSTITUTO OBRERO DE VALENCIA","address":"Pintor Luis Arcas - Inst. Obrero Valenciano","latitude":39.455477050399,"longitude":-0.358878039093959},{"number":68,"name":"068_AVDA. DEL PUERTO IV","address":"Av. Puerto - José Aguilar","latitude":39.462771080523,"longitude":-0.341823991929563},{"number":175,"name":"175_CALLE_JUAN_XXIII","address":"Juan XXIII - Domingo Gómez","latitude":39.4925571677332,"longitude":-0.382803130751858},{"number":166,"name":"166_PROGRESO","address":"Don Vicente Guillot - Progreso","latitude":39.4733171202464,"longitude":-0.328901958917283},{"number":53,"name":"53_C/ LUIS GARCIA BERLANGA","address":"Alameda - Pintor Maella","latitude":39.456732058086,"longitude":-0.348230007860048},{"number":271,"name":"271_CALLE_SALVADOR_CERVERÓ_CALLE_CARLOS_CORTINA","address":"Salvador Cerveró - Carlos Cortina","latitude":39.4992471879931,"longitude":-0.389982155850781},{"number":42,"name":"42_AVDA. DE LA PLATA","address":"Av. de la Plata (Museo Fallero)","latitude":39.4587490614763,"longitude":-0.358749040474832},{"number":44,"name":"44_AVDA. GRAL. URRUTIA","address":"General Urrutia - Av. de la Plata","latitude":39.4563970521313,"longitude":-0.363105052261891},{"number":16,"name":"016_COLON I","address":"Colón, 60","latitude":39.470060095815,"longitude":-0.370524081869223},{"number":210,"name":"210_CALLE_CAMPOS_CRESPO_ESQ_CALLE_JUAN_DE_GARAY","address":"Campos Crespo - Juan de Garay","latitude":39.455521038259,"longitude":-0.396807152864784},{"number":45,"name":"45_AVDA. GRAL. URRUTIA","address":"Hermanos Maristas - General Urrutia","latitude":39.4537870437033,"longitude":-0.361946047377204},{"number":125,"name":"125_C/ MASQUEFA","address":"Masquefa, 42 - 44","latitude":39.4896611657071,"longitude":-0.358709056987903},{"number":202,"name":"202_PASEO_PECHINA","address":"Pechina - Teruel","latitude":39.4761901091111,"longitude":-0.393425153835504},{"number":236,"name":"236_RIO_SEGRE_RAFAEL_COMPANY","address":"Rio Segre - Rafael Company","latitude":39.4950341762248,"longitude":-0.382369130775341},{"number":135,"name":"135_AVDA. CONSTITUCIÓN","address":"Constitución - Reus","latitude":39.4856701458608,"longitude":-0.378592114439778},{"number":251,"name":"251_ARQUITECTO_SEGURA_LAGO_CAMINO_NUEVO_DE_PICAÑA","address":"Arquitecto Segura del Lago - Camino Nuevo de Picaña","latitude":39.4557980367043,"longitude":-0.404504176110588},{"number":157,"name":"157_AVENIDA_PEREZ_GALDOS","address":"Pérez Galdós - Marqués de Zenete","latitude":39.464020069969,"longitude":-0.387457129393968},{"number":187,"name":"187_AVDA_AUSIAS_MARCH","address":"Ángel Villena - Ausias March","latitude":39.4479280216762,"longitude":-0.368909065084874},{"number":109,"name":"109_AVDA. NARANJOS","address":"Naranjos - Ingeniero Fausto Elio","latitude":39.4767871304178,"longitude":-0.333600974859012},{"number":65,"name":"065_AVDA. DEL PUERTO III","address":"Av. Puerto - Doctor Manuel Candela","latitude":39.4654840867199,"longitude":-0.350928020671138},{"number":205,"name":"205_CALLE_NICASIO_BENLLOCH","address":"Nicasio Benlloch - Amics dels Corpus","latitude":39.4892551532675,"longitude":-0.393181160103781},{"number":133,"name":"133_C/ ALFAMBRA","address":"Alfambra - Poeta Monmeneu","latitude":39.4827241367683,"longitude":-0.375973105008805},{"number":197,"name":"197_CALLE_FONTANARS_DELS_AFORINS","address":"Fontanars dels Aforins - Jacinto Labaila","latitude":39.4581520485586,"longitude":-0.392424141132886},{"number":88,"name":"088_AVDA. BLASCO IBAÑEZ 3","address":"Blasco Ibañez, 28 (F. Geografía e Historia)","latitude":39.4774801238339,"longitude":-0.361233058011854},{"number":156,"name":"156_C/ CUBA","address":"Puerto Rico - Cuba","latitude":39.4609320631125,"longitude":-0.376436094678165},{"number":225,"name":"225_CALLE_PADRE_BARRANCO_DESPUES_CALLE_BENIFAIRO","address":"Padre Barranco - Carlos Ruano Llopis (Pintor)","latitude":39.4880751467038,"longitude":-0.401233183623003},{"number":92,"name":"092_AVDA. DE ARAGON, 4 - ESQ AVDA BLASCO IBAÑEZ","address":"Blasco Ibañez - Aragón","latitude":39.4758281199338,"longitude":-0.356059041618514},{"number":33,"name":"033_GRAN_VIA_GERMANIAS_ESQ_CALLE_RUZAFA","address":"Germanías - Ruzafa","latitude":39.4647860768762,"longitude":-0.37408108969372},{"number":85,"name":"085_AVDA_BLASCO IBAÑEZ 1","address":"Blasco Ibañez - Jaime Roig","latitude":39.4794321292633,"longitude":-0.364806069768998},{"number":162,"name":"162_PZA. ARMADA ESPAÑOLA","address":"Armada Española - Mariano Cuber","latitude":39.4635720870931,"longitude":-0.32988595660341},{"number":13,"name":"013_PZA. ALFONSO MAGNANIMO_CON_CALLE_LA_NAVE","address":"Alfonso el Magnánimo - Nave","latitude":39.4720301023169,"longitude":-0.370965084251257},{"number":132,"name":"132_C/ RUAYA","address":"Platero Suárez - Milagrosa","latitude":39.485254146087,"longitude":-0.373525099027208},{"number":194,"name":"194_ESTACION_AVE_JOAQUIN_SOROLLA","address":"Estación AVE Joaquín Sorolla","latitude":39.46074,"longitude":-0.38189},{"number":87,"name":"87_AVDA BLASCO IBAÑEZ 2","address":"Blasco Ibañez - Doctor Gómez Ferrer (Clínico)","latitude":39.4784861269877,"longitude":-0.361971060764256},{"number":206,"name":"206_CALLE_PERIODISTA_GIL_SUMBIELA","address":"Periodista Gil Sumbiela - Poeta Serrano Clavero","latitude":39.4926801661293,"longitude":-0.389098149691761},{"number":223,"name":"223_CALLE_VALLE_BALLESTERA_ESQ_PLAZA_POLICIA_LOCAL","address":"Valle de la Ballestera - Hospital Nueve de Octubre","latitude":39.4785261144674,"longitude":-0.40127817864509},{"number":214,"name":"214_CALLE_SANTA_CRUZ_DE_TENERIFE_ESQ_CALLE_LLOMBA","address":"Santa Cruz de Tenerife, 21","latitude":39.4649000686738,"longitude":-0.400667169496185},{"number":40,"name":"40_CALLE_BARCAS_FRENTE _TEATRO_PRINCIPAL","address":"Barcas, 11","latitude":39.470434095659,"longitude":-0.374915095234885},{"number":219,"name":"219_CALLE_CASTAN_TOBEÑAS_ESQ_CALLE_VELAZQUEZ","address":"Castán Tobeñas - Rincon de Ademuz","latitude":39.472625,"longitude":-0.403121},{"number":9,"name":"009_PLAZA_TETUAN_4","address":"Plaza de Tetuán","latitude":39.4743231103546,"longitude":-0.370021082654504},{"number":59,"name":"059_AVDA. DE BALEARES I","address":"Baleares - Río Escalona","latitude":39.4630560773318,"longitude":-0.354640030484729},{"number":30,"name":"030_CIRILO AMOROS","address":"Cirilo Amorós - Jorge Juan (Mercado Colón)","latitude":39.468569091411,"longitude":-0.368590075268948},{"number":91,"name":"091_CALLE_GRABADOR_JORDAN_46_PLAZA_ESCULTOR_PASTOR","address":"Grabador Jordan - Escultor Pastor","latitude":39.4440930091404,"longitude":-0.367664059275921},{"number":4,"name":"004_PLAZA_DE_LA_VIRGEN_CALLE_BAILIA","address":"Plaza de la Virgen - Bailía","latitude":39.4767151166769,"longitude":-0.375433100164395},{"number":171,"name":"171_CALLE GRAN CANARIA","address":"Gran Canaria - Ingeniero Manuel Maese","latitude":39.4830281528956,"longitude":-0.329098964737767},{"number":117,"name":"117_PRIMADO REIG","address":"Gascó Oliag - Primado Reig","latitude":39.479219131011,"longitude":-0.357156046729095},{"number":266,"name":"266_PLANA_ALTA_ESQ_AVDA_MAESTRO_RODRIGO","address":"Canal de Navarrés - Maestro Rodrigo","latitude":39.4902571523898,"longitude":-0.406462200475517},{"number":95,"name":"95_AVDA. DE LOS NARANJOS","address":"Naranjos (Magisterio)","latitude":39.4798031365094,"longitude":-0.34621001424835},{"number":22,"name":"022_JUAN_LLORENS_57","address":"Angel Guimerá - Juan Llorens","latitude":39.4697550890028,"longitude":-0.388444135439494},{"number":55,"name":"55_AVDA. DE FRANCIA","address":"Francia - Pintor Maella","latitude":39.4593110666043,"longitude":-0.348777010892994},{"number":14,"name":"014_BARÓN CARCER","address":"Huesca - Barón de Cárcer","latitude":39.4689350890206,"longitude":-0.379815109120643},{"number":62,"name":"062_MENORCA","address":"Menorca - Baleares","latitude":39.4597790703012,"longitude":-0.342242991568314},{"number":144,"name":"144_CALLE_MARQUES_DE_SAN_JUAN","address":"Marqués de San Juan - Diputat Lluís Lucía","latitude":39.4787471170485,"longitude":-0.395571161644053},{"number":89,"name":"89_AVDA. BLASCO IBAÑEZ","address":"Blasco Ibañez, 23 (F. Filosofía y Psicología)","latitude":39.4777701253999,"longitude":-0.359409052701581},{"number":189,"name":"189_HOSPITAL_NUEVA_FE","address":"Hospital Nueva Fe (administración)","latitude":39.444747,"longitude":-0.377156},{"number":80,"name":"080_AMADEO SAVOIA","address":"Amadeo de Saboya (frente Ayuntamiento)","latitude":39.4737101107501,"longitude":-0.362389059448826},{"number":129,"name":"129_C_ALMAZORA","address":"Almazora - Benimuslem","latitude":39.485943149532,"longitude":-0.37003608893869},{"number":181,"name":"181_CALLE_DEL_SALINAR","address":"Zapadores, 23","latitude":39.4579670557495,"longitude":-0.368282068629998},{"number":83,"name":"83_PZA. DE LA LEGIÓN ESPAÑOLA","address":"General Elio - Llano del Real","latitude":39.4775531222011,"longitude":-0.367061075518166},{"number":212,"name":"212_CALLE_FRAY_JUANÍPERO_SERRA_ESQ_CALLE_TORRENTE","address":"Fray Juanípero Serra - Torrente","latitude":39.4614520570921,"longitude":-0.40048716710112},{"number":78,"name":"078_AVDA. ARAGÓN I","address":"Aragón - Vicente Sancho Tello","latitude":39.4699130991134,"longitude":-0.358779046585651},{"number":149,"name":"149_AVDA. PERIS Y VALERO","address":"Peris y Valero - Salamanca","latitude":39.4629020744664,"longitude":-0.361886052119026},{"number":176,"name":"176_CAMINO_DE_MONCADA_52","address":"Cno. Moncada - Pedro Patricio Mey","latitude":39.4919851670424,"longitude":-0.378944118876901},{"number":23,"name":"023_GRAN_VIA_FERNANDO_EL_CATOLICO","address":"Fernando el Católico - Erudito Orellana","latitude":39.471596095916,"longitude":-0.3862691299059},{"number":10,"name":"010_CALLE_DEL_HOSPITAL_FRENTE_CALLE_HORNO_DEL_HOSP","address":"Hospital - Horno del Hospital","latitude":39.4707840943272,"longitude":-0.382701118769287},{"number":60,"name":"060_AVDA.BALEARES II","address":"Baleares - Lebón","latitude":39.4621990753403,"longitude":-0.351867021712218},{"number":229,"name":"229_CALLE_AITANA_ESQ_AVDA_BURJASSOT","address":"Aitana - Florista","latitude":39.4930721655928,"longitude":-0.394897167291038},{"number":139,"name":"139_C/ REUS","address":"Reus - Alquería de la Estrella","latitude":39.4856741444693,"longitude":-0.382964127549696},{"number":69,"name":"069_AVDA. DEL PUERTO","address":"Av. Puerto - Serrería","latitude":39.461920078631,"longitude":-0.338811982446624},{"number":245,"name":"245_9_DE_OCTUBRE_CIEZA","address":"Nueve de Octubre - Cieza","latitude":39.472098,"longitude":-0.405361},{"number":270,"name":"270_CALLE_NINOT_ESQ_PZA_REGINO_MAS","address":"Ninot - Regino Mas","latitude":39.5000431897182,"longitude":-0.392980165265021},{"number":29,"name":"029_PLAZA AMERICA","address":"Plaza América - Cirilo Amorós - Sorní","latitude":39.4700800975406,"longitude":-0.36539006649012},{"number":38,"name":"38_AVDA. PERIS Y VALERO","address":"Peris y Valero - Cabo Jubi","latitude":39.4593698286773,"longitude":-0.370340076012569},{"number":252,"name":"252_DE_LOS_GREMIOS_CAMPOS_CRESPO","address":"Dels Gremis - Campos Crespo","latitude":39.4502560182615,"longitude":-0.4036651706049},{"number":192,"name":"192_CTRA_MALILLA","address":"Cra. Malilla - Oltá","latitude":39.4526050342473,"longitude":-0.378805097289263},{"number":153,"name":"153_C/ LLANO DE ZAIDA","address":"Llano de la Zaidía - Doctor Olóriz","latitude":39.483026,"longitude":-0.380682},{"number":224,"name":"224_PLAZA_JOSE_MONFORTE_TUDELA_ESQ_CALLE_HERNANDEZ","address":"Jorge Comin (Metge) - Terrateig","latitude":39.4805361204789,"longitude":-0.403679186925212},{"number":113,"name":"113_ETS CAMINOS","address":"UPV Caminos","latitude":39.4812441421744,"longitude":-0.343702007510602},{"number":208,"name":"208_CALLE_CARTEROS_ESQ_CALLE_MOSSEN_FEBRER","address":"Carteros - Mossen Febrer","latitude":39.4516600278603,"longitude":-0.38866912636635},{"number":50,"name":"50_AVDA. AUTOPISTA DEL SALER","address":"Autopista del Saler - Antonio Ferrandis (C.C. El Saler)","latitude":39.4532860449334,"longitude":-0.352950020141597},{"number":142,"name":"142_C/ GREGORIO GEA (PEATONAL)","address":"Gregorio Gea - Profesor Beltrán Báguena","latitude":39.4818881295177,"longitude":-0.389750145869399},{"number":269,"name":"269_CAMPAMENTO_81","address":"Campamento, 81","latitude":39.4998751784868,"longitude":-0.426354265293528},{"number":103,"name":"103_RUBEN DARIO","address":"Rubén Darío - Plaza Fray Luis Colomer","latitude":39.4784211298349,"longitude":-0.35246203223541},{"number":11,"name":"011_PZA_AYTO_CON_CALLE_COTANDA","address":"Plaza Ayuntamiento - Cotanda","latitude":39.471154097455,"longitude":-0.376875101498657},{"number":242,"name":"242_LA_SAFOR_AVDA_MAESTRO_RODRIGO","address":"La Safor - Maestro Rodrigo","latitude":39.4878751450492,"longitude":-0.404288192680299},{"number":250,"name":"250_AVDA_TRES_CRUCES_PIO_XI","address":"Tres Cruces - Pio XI","latitude":39.45632,"longitude":-0.4008977},{"number":2,"name":"002_CALLE_SALVADOR_GINER_CALLE_MUSEO","address":"Salvador Giner - C. Museo","latitude":39.4798571258551,"longitude":-0.379839115061075},{"number":182,"name":"182_AVDA_AUSIAS_MARCH","address":"Ausias March - Pianista Amparo Iturbi","latitude":39.455400044894,"longitude":-0.375056087555512},{"number":222,"name":"222_AVDA_MAESTRO_RODRIGO_ESQ_AVDA_MANUEL_DE_FALLA","address":"Maestro Rodrigo - Manuel de Falla","latitude":39.4768611101047,"longitude":-0.397373166037864},{"number":93,"name":"93_AVADA_BLASCO_IBAÑEZ_DESP_C_POETA_DURAN_TORTAJAD","address":"Blasco Ibañez - Poeta Durán Tortajada","latitude":39.4722501118008,"longitude":-0.34390000326249},{"number":57,"name":"057_CALLE PINTOR MONLEON","address":"Alameda - Pintor Monleón","latitude":39.464444080812,"longitude":-0.35834704234339},{"number":253,"name":"253_PLAZA_JOSE_MELIA_CASTELLO_CAMPOS_CRESPO","address":"José Meliá Castelló - Campos Crespo","latitude":39.4526940272949,"longitude":-0.401192164498328},{"number":218,"name":"218_CALLE_OLIMPIA AROZENA TORRES_ESQ_JUAN BAPTISTA","address":"Olimpia Arozena Torres - Juan Bautista Vives","latitude":39.470708089307,"longitude":-0.397475163041212},{"number":136,"name":"136_CALLE_ECONOMISTA_GAY","address":"Economista Gay - Constitución","latitude":39.4899091610835,"longitude":-0.375701108044157},{"number":272,"name":"272_VICENTE_LA_RODA_C_INGENIERO_FAUSTO_ELIO","address":"Vicente la Roda - Ingeniero Fausto Elio","latitude":39.4805911436594,"longitude":-0.332280972954351},{"number":199,"name":"199_CALLE_BEATO_NICOLAS_FACTOR","address":"Beato Nicolás Factor - Convento de Jesús","latitude":39.4615560602987,"longitude":-0.391649140641673},{"number":105,"name":"105_AVDA. DE LOS NARANJOS","address":"Aularios Universidad de Valencia","latitude":39.478319,"longitude":-0.344486},{"number":126,"name":"126_C/ ALFAUIR","address":"Alfahuir - José Chabas Bordehore","latitude":39.4930661767053,"longitude":-0.36019506326505},{"number":195,"name":"195_CALLE_GIORGETA","address":"Giorgeta - Roig de Corella","latitude":39.4593520552134,"longitude":-0.384372117626406},{"number":145,"name":"145_PLAZA_BADAJOZ","address":"Plaza Badajoz","latitude":39.4815151254512,"longitude":-0.398486171871458},{"number":275,"name":"275_CAMINO_DE_LAS_MORERAS_ESQ_RONDA_DE_NAZARET","address":"Moreras - Rona de Nazaret","latitude":39.4522730472996,"longitude":-0.33515596627555},{"number":61,"name":"061_VICENTE VIDAL","address":"Vicent Vidal - Pintor Maella","latitude":39.4612610734563,"longitude":-0.347921009381426},{"number":260,"name":"260_DELS_FERRERS_ESQ_TRAGINERS","address":"Traginers - Pedrapiquers","latitude":39.4595240483794,"longitude":-0.407308186532079},{"number":54,"name":"54_PASEO ALAMEDA","address":"Plaza de Europa","latitude":39.4597460667729,"longitude":-0.352781023126671},{"number":188,"name":"188_HOSPITAL_NUEVA_FE","address":"Hospital Nueva Fe (consultas externas)","latitude":39.444589,"longitude":-0.375249},{"number":163,"name":"163_PASEO NEPTUNO","address":"Paseo Neptuno 32-34","latitude":39.4644050919738,"longitude":-0.323491937905993},{"number":244,"name":"244_AVDA_PIO_BAROJA_VALLE_DE_LA_BALLESTERA","address":"Valle de la Ballestera - Pio Baroja","latitude":39.4784741127009,"longitude":-0.406227193465013},{"number":75,"name":"075_CAMPOAMOR I","address":"República Argentina - Campoamor","latitude":39.4720811086804,"longitude":-0.351792026815861},{"number":276,"name":"276_EDIFICIO_VELES_E_VENTS","address":"Veles e Vents","latitude":39.4619430835605,"longitude":-0.323855937664754},{"number":51,"name":"51_PSO. DE LAS MORERAS","address":"Moreras (Oceanográfico)","latitude":39.4521510429352,"longitude":-0.347318002649104},{"number":37,"name":"37_AVDA. PERIS Y VALERO","address":"Peris y Valero - Luis Santángel","latitude":39.4609055823944,"longitude":-0.366531327258963},{"number":124,"name":"124_C/ AZAGADOR DE ALBORAYA","address":"Azagador de Alboraya - Dolores Marqués","latitude":39.4884691606166,"longitude":-0.362046066347782},{"number":257,"name":"257_PLAZA_SALVADOR_SORIA_ESQ_PIO_X","address":"Plaza Salvador Soria, 8","latitude":39.4452190059457,"longitude":-0.389195124464717},{"number":158,"name":"158_DR.LLUNCH","address":"Doctor Lluch - Virgen del Sufragio","latitude":39.4666660981916,"longitude":-0.327809952057852},{"number":43,"name":"43_C/ DE ORIENTE","address":"Escultor José Capuz - Oriente","latitude":39.4594450630151,"longitude":-0.361244048329219},{"number":240,"name":"240_CAMP_DEL_TURIA_AVDA_CORTES_VALENCIANAS","address":"Camp del Turia - Corts Valencianes","latitude":39.494972169843,"longitude":-0.401638188523523},{"number":150,"name":"150_DR. MANUEL CANDELA","address":"Manuel Candela - Rodriguez de Cepeda","latitude":39.4676890942275,"longitude":-0.350700021177111},{"number":220,"name":"220_CALLE_CASTAN_TOBEÑAS_ESQ_CALLE_DE_GOYA","address":"Castán Tobeñas - Patriques","latitude":39.4738230995181,"longitude":-0.398412167524643},{"number":148,"name":"148_XÀTIVA_PLAZA_DE_TOROS","address":"C/Xàtiva 30-32","latitude":39.467113,"longitude":-0.375469},{"number":228,"name":"228_AVDA_NICASIO_BENLLOCH_ESQ_CALLE_L'HORTA_SUD","address":"Doctor Nicasio Benlloch - L'Horta Sud","latitude":39.493660166338,"longitude":-0.398762179196655},{"number":6,"name":"006_GUILLEN_CASTRO_CON_CALLE_SAN_PEDRO_PASCUAL","address":"Guillem de Castro - San Pedro Pascual","latitude":39.4727661005389,"longitude":-0.384174124251856},{"number":180,"name":"180_AVENIDA_DOCTOR_WAKSMAN","address":"Doctor Waksman - Nieves","latitude":39.455989048269,"longitude":-0.370774075033782},{"number":177,"name":"177_CALLE_ALCUDIA","address":"Alcudia de Crespins - Pedro Patricio Mey","latitude":39.4935131739156,"longitude":-0.373579103612918},{"number":267,"name":"267_C_BENIFERRI_VICENTE_TOMAS_MARTI","address":"Beniferri - Vicent Tomás Martí","latitude":39.4941361656198,"longitude":-0.406020201221407},{"number":154,"name":"154_PESCADORES","address":"Pescadores - Progreso","latitude":39.4698441083049,"longitude":-0.329644959268791},{"number":259,"name":"259_CALLE_PIO_IX_POLIDEPORTIVO_RAMBLETA","address":"Pio IX - Músico Cabanilles","latitude":39.445428005382,"longitude":-0.393106136312086},{"number":86,"name":"86_AVDA_GASPAR_AGUILAR_ESQ_VICENTE_PARRA","address":"Gaspar Aguilar - Vicente Parra","latitude":39.45520803899,"longitude":-0.391284136125771},{"number":73,"name":"073_JERONIMO MONSORIU","address":"Jerónimo Monsoriu - Industria","latitude":39.4662270918011,"longitude":-0.342969997228533},{"number":191,"name":"191_CTRA_MALILLA","address":"Esparraguera - Cra. Malilla","latitude":39.4502970264089,"longitude":-0.378957096498364},{"number":5,"name":"005_PINTOR_LOPEZ_PZA_POETA_LLORENTE","address":"Plaza Poeta Llorente","latitude":39.4768631185303,"longitude":-0.371231087646942},{"number":183,"name":"183 - AVDA AUSIAS MARCH","address":"Ausias March - Av. de la Plata","latitude":39.452588036275,"longitude":-0.372375077997377},{"number":24,"name":"024_GRAN_VIA_RAMON_Y_CAJAL","address":"Fernando el Católico - Cuenca","latitude":39.4690450880029,"longitude":-0.384118122083548},{"number":241,"name":"241_VALL_DE_ALBAIDA_PEATONAL","address":"La Vall d'Albaida - Corts Valencianes","latitude":39.4929461628982,"longitude":-0.401981188470323},{"number":127,"name":"127_C/ DUQUE DE MANDAS","address":"Alfahuir - Duque de Mandas","latitude":39.4905591668607,"longitude":-0.36453707493258},{"number":64,"name":"064_AVDA. DEL PUERTO II","address":"Av. Puerto 61-63","latitude":39.4664860890115,"longitude":-0.354286031274125},{"number":90,"name":"90_AVDA. BLASCO IBAÑEZ","address":"Blasco Ibañez, 32 (F. Filología)","latitude":39.4767021219125,"longitude":-0.35905805107551},{"number":146,"name":"146_AVDA. CAMPANAR","address":"Av. Campanar (La Fe)","latitude":39.4850781398635,"longitude":-0.391043151456223},{"number":161,"name":"161_MEDITERRANEO","address":"Mediterráneo - Plaza Cruz de Cañamelar","latitude":39.467937101176,"longitude":-0.331816964744236},{"number":160,"name":"160_JOSE MARIA DE HARO","address":"José María de Haro - Justo y Pastor","latitude":39.4673040966933,"longitude":-0.33907198613268},{"number":185,"name":"185_AVDA_AUSIAS_MARCH","address":"Ebanista Caselles - Ausias March","latitude":39.450012028161,"longitude":-0.37059407126453},{"number":66,"name":"066_GUILLEN DE ANGLESOLA","address":"Guillem de Anglesola - Av. Puerto","latitude":39.4642390840045,"longitude":-0.346352006288128},{"number":173,"name":"173_AVENIDA_PIO_XII_34","address":"Pío XII - Monestir de Poblet","latitude":39.4845091367472,"longitude":-0.394769162326153},{"number":230,"name":"230_CALLE_POETA_SERRANO_CLAVERO_EQ_GENERAL_LLORENS","address":"Poeta Serrano Clavero - General Llorens","latitude":39.4947181737151,"longitude":-0.386875144115863},{"number":71,"name":"071_AVDA DEL PUERTO VI","address":"Av. Puerto - Plaza Tribunal de les Aigües","latitude":39.4603480750162,"longitude":-0.333621966050435},{"number":200,"name":"200_AVDA_DEL_CID","address":"Av. del Cid - Julián Peña","latitude":39.4677050805168,"longitude":-0.393305148918046},{"number":184,"name":"184_CALLE_BOMBER_RAMON_DUART","address":"Bombero Ramón Duart - Hermanos Maristas","latitude":39.4527500389997,"longitude":-0.365661057953976},{"number":262,"name":"262_AVDA_TRES_FORQUES_COLONIA_ESPANOLA_DE_MEXICO","address":"Tres Forques - Colonia Española de Mexico","latitude":39.4634400609539,"longitude":-0.409316194664879},{"number":15,"name":"015_RIBERA","address":"Ribera - Plaza Ayuntamiento","latitude":39.4690560906886,"longitude":-0.375728096943875},{"number":249,"name":"249_AVDA_TRES_CRUCES_SEGUNDA_REPUBLICA_ESPAÑOLA","address":"Tres Cruces - Segunda República Española","latitude":39.459474049657,"longitude":-0.402831173069948},{"number":35,"name":"35_C/ DUQUE DE CALABRIA","address":"Regne de Valencia - Almirante Cadarso","latitude":39.4637170755328,"longitude":-0.367085068143159},{"number":20,"name":"020_FERNANDO_EL_CATOLICO_CALLE_QUART","address":"Quart - Fernando el Católico","latitude":39.4750021068696,"longitude":-0.387938136740957},{"number":36,"name":"036_PZA_LOS_FUEROS_CONDE_TRENOR","address":"Plaza de los Fueros - Conde Trenor","latitude":39.4790401244879,"longitude":-0.375527101694727},{"number":226,"name":"226_CALLE_SAFOR_ESQ_AVDA_DE_LAS_CORTES_VALENCIANAS","address":"Corts Valencianes - La Safor","latitude":39.4908321567375,"longitude":-0.398950178249295},{"number":170,"name":"170_PAVIA 5","address":"Isabel de Villena - Mendizábal","latitude":39.4829411537881,"longitude":-0.325424953690914}]